business_area_id,name,area_type,center_lat,center_lon,radius_km,demand_pool_conservative,demand_pool_base,demand_pool_upside,location_type,confidence,notes,last_verified_date
lp_superhighway_retail_strip,Lampang superhighway retail strip,urban_fringe,18.2765,99.4845,3.8,70,105,145,destination,medium_high,"City-side retail and supermarket strip covering Central, Big C, Lotus's, Makro, airport frontage, and repeat urban trips suited to destination charging.",2026-06-05
lp_old_city_wang_river,Lampang old city and Wang River activity band,urban_fringe,18.2925,99.4935,3.2,50,80,115,destination,medium,"Old town, riverfront, hospital, bus/rail access, and mixed civic-commercial demand that supports compact urban charging more than pure highway charging.",2026-06-05
lp_hang_chat_gateway,Hang Chat - Chiang Mai gateway connector,periurban_connector,18.3300,99.3000,6.5,45,70,100,highway,medium,"Gateway corridor toward Chiang Mai along Route 11 where stopover demand should sit between regional travel and near-city community activity.",2026-06-05
lp_kokha_route1_connector,Ko Kha Route 1 city-south connector,periurban_connector,18.2320,99.4250,6.5,55,85,120,highway,medium,"Southwest city approach combining Route 1 corridor traffic with Ko Kha fringe demand and temple/tourism spill-in that is still accessible from the main road.",2026-06-05
lp_mae_mo_industrial_connector,Mae Moh industrial and workforce connector,periurban_connector,18.2990,99.6900,7.5,40,65,95,highway,medium_low,"Eastern workforce and industrial movement tied to Mae Moh; suitable for corridor-style charging if anchored by reliable roadside amenities.",2026-06-05
