business_area_id,name,area_type,center_lat,center_lon,radius_km,demand_pool_conservative,demand_pool_base,demand_pool_upside,location_type,confidence,notes,last_verified_date
phs_central_h12_fringe,Central Phitsanulok retail and Highway 12 fringe,urban_fringe,16.8385,100.2385,3.8,90,135,195,destination,medium_high,"Retail-led urban fringe around Central Phitsanulok, adjacent malls, and the Singhawat / Highway 12 frontage where modern destination charging should carry more weight than pure old-town demand.",2026-06-06
phs_old_city_medical_band,Old city medical and civic band,urban_fringe,16.8135,100.2660,3.4,80,120,170,destination,medium_high,"Built-up inner-city band connecting Wat Yai, Buddhachinaraj Hospital, railway station, riverfront hotels, and civic trips.",2026-06-06
phs_samo_khae_bypass_connector,Samo Khae bypass and terminal connector,periurban_connector,16.8230,100.3320,4.8,75,115,170,highway,medium,"Connector demand around the bypass, terminal 2, logistics plots, and large-format retail expansion east of the main city.",2026-06-06
phs_naresuan_south_fringe,Naresuan University south urban fringe,urban_fringe,16.7445,100.1890,4.0,80,125,180,destination,medium_high,"University-medical-student demand cluster south of the city core, suitable for destination-style charging with long dwell time.",2026-06-06
phs_wang_thong_route12_connector,Wang Thong Route 12 connector,periurban_connector,16.8420,100.4090,5.6,65,100,150,highway,medium,"Route 12 connector area capturing city-to-corridor trips toward Phetchabun and the eastern districts.",2026-06-06
