zone_id,name,center_lat,center_lon,radius_km,heat_rank,demand_pool_conservative,demand_pool_base,demand_pool_upside,competition_pressure,capture_notes,confidence,last_verified_date
cn_mueang_retail_core,Mueang Chai Nat retail and civic core,15.1905,100.1275,3.4,1,58,88,128,medium,"Primary urban demand node around municipal core, Lotus's, civic uses, hospital-side trips, and dense everyday city movement. Best fit for compact city charging or medium DC node.",medium_high,2026-06-19
cn_bird_park_city_east,Chai Nat Bird Park and city-east leisure band,15.2035,100.1505,3.0,2,42,64,94,medium,"Leisure and family destination catchment linking Bird Park traffic with the eastern city fringe. Better for destination-style charging than pure corridor stopover.",medium,2026-06-19
cn_manorom_asian_highway,Manorom Asian Highway service band,15.3210,100.1330,4.8,3,50,76,112,medium_high,"Asian Highway roadside and district-service zone around Manorom / Tha Chanuan. Suitable for corridor-oriented DC charging with visible frontage and amenities.",medium_high,2026-06-19
cn_sapphaya_dam_leisure_corridor,Sapphaya / Chao Phraya Dam leisure-corridor node,15.1593,100.1800,4.2,4,38,58,86,medium,"Mixed local, leisure, and through-traffic activity around Chao Phraya Dam and the eastern district side. More useful as a secondary support zone than as the primary urban peak.",medium,2026-06-19
cn_sankhaburi_south_service_node,Sankhaburi south service node,15.0479,100.1614,4.8,5,36,54,80,medium_low,"Southern district service catchment with routine local errands and corridor movement. Useful to preserve south-province visibility without overstating city intensity.",medium,2026-06-19
cn_hankha_western_district,Hankha western district node,15.0316,99.9684,4.6,6,30,46,68,low_medium,"Western district center for community demand and coverage planning. Keep weaker than Mueang / Manorom to avoid over-painting low-density areas.",medium,2026-06-19
