zone_id,name,center_lat,center_lon,radius_km,heat_rank,demand_pool_conservative,demand_pool_base,demand_pool_upside,competition_pressure,capture_notes,confidence,last_verified_date
central_lampang_retail,Central Lampang / Robinson / Big C retail core,18.2822,99.4762,3.0,1,70,110,160,medium,"Primary urban retail node. Good for destination DC charging if parking access and mall dwell time are secured. Public coordinate anchor from Tops Central Lampang listing.",medium,2026-06-01
lampang_city_kad_kong_ta,Lampang city center / Kad Kong Ta / Wang River,18.2923,99.4928,3.0,2,55,85,125,medium,"Tourist and old-town activity node. DC hub execution is sensitive to parking and access; better for compact urban or destination charging unless the site has dedicated parking.",medium,2026-06-01
phahonyothin_route1_kokha,Highway 1 / Ko Kha - Samakkhi corridor,18.2400,99.4300,8.0,3,65,100,150,medium_high,"Highest DOH AADT corridor in Lampang seed data, with Route 1 counts above 50k AADT in 2566 at Ko Kha - Samakkhi. Stronger for travel and intercity stopover demand than pure city demand.",medium,2026-06-01
lampang_bypass_route127,Lampang bypass / Route 127,18.3100,99.5000,5.0,4,45,75,110,medium,"Bypass captures intercity flow around the city. Needs roadside visibility, food/restroom anchor, and easy ingress/egress.",medium_low,2026-06-01
mae_mo_industrial,Mae Mo industrial / workforce corridor,18.3000,99.6500,8.0,5,35,60,95,low_medium,"Industrial and workforce-related demand; public DC demand depends heavily on local EV adoption and fleet behavior.",low_medium,2026-06-01
hang_chat_gateway,Hang Chat / Chiang Mai-Lampang gateway,18.3300,99.3000,8.0,6,35,55,85,medium,"Gateway toward Chiang Mai. Useful for corridor screening but needs charger competitor and rest-stop POI verification.",low_medium,2026-06-01
