zone_id,name,center_lat,center_lon,radius_km,heat_rank,demand_pool_conservative,demand_pool_base,demand_pool_upside,competition_pressure,capture_notes,confidence,last_verified_date
phs_central_retail_core,Central Phitsanulok / Highway 12 retail core,16.8385,100.2385,3.6,1,95,145,210,medium_high,"Primary urban retail node around Central, adjacent large-format retail, and Highway 12 frontage. Suitable for destination or mall-surface charging if ingress and reserved bays are strong.",medium_high,2026-06-06
phs_old_city_river_core,Old city / Wat Yai / railway / riverfront core,16.8195,100.2645,3.2,2,80,120,175,medium,"Dense civic, tourism, rail, temple, and hotel demand in the legacy city core. Better for compact city-center charging than very large hub format.",medium_high,2026-06-06
phs_airport_aranyik_band,Airport / Aranyik urban band,16.7865,100.2805,3.8,3,75,115,165,medium,"Airport and Aranyik-side demand supported by scheduled passengers, receiver traffic, car rental, and north-side city access roads.",medium,2026-06-06
phs_naresuan_tha_pho_cluster,Naresuan University / Tha Pho medical-education cluster,16.7445,100.1888,4.2,4,85,130,185,medium,"Large university and teaching-hospital node with strong daily recurring trips and good fit for destination-oriented DC charging.",medium_high,2026-06-06
phs_bypass_terminal2_samo_khae,Bus terminal 2 / bypass / Samo Khae logistics fringe,16.8235,100.3315,5.2,5,75,120,180,medium_high,"Bypass-side intercity bus, logistics, and large-format retail growth zone. Strong candidate for roadside-destination hybrid charging.",medium,2026-06-06
phs_wang_thong_route12_gateway,Wang Thong / Route 12 east gateway,16.8420,100.4090,6.0,6,65,105,155,medium_high,"Main eastbound gateway from Mueang toward Phetchabun, Lom Sak, and mountain tourism traffic. Better suited to corridor capture than inner-city repeat demand.",medium,2026-06-06
phs_nakhon_thai_mountain_corridor,Nakhon Thai / Route 12 mountain corridor,17.1000,100.8370,7.0,7,40,65,95,low_medium,"District corridor node toward Phu Hin Rong Kla and Loei-side travel. Include for province screening but not as strong as the city clusters.",low_medium,2026-06-06
