zone_id,name,center_lat,center_lon,radius_km,heat_rank,demand_pool_conservative,demand_pool_base,demand_pool_upside,competition_pressure,capture_notes,confidence,last_verified_date
route2_friendship_bridge_gateway,Route 2 / First Thai-Lao Friendship Bridge gateway,17.8750,102.7200,5.0,1,105,160,245,medium_high,"Highest current seed AADT point is Route 2 Nam Suai - Friendship Bridge at 33,247 AADT with high heavy-vehicle share. Best corridor for cross-border and intercity DC charging.",medium_high,2026-06-01
nong_khai_city_mekong_core,Nong Khai city / Mekong riverfront core,17.8780,102.7420,4.0,2,70,105,160,medium,"City, riverfront, tourism, hotel, government, restaurant, and rail/bus demand. More destination-oriented than high-throughput highway charging.",medium,2026-06-01
route243_border_checkpoint_axis,Route 243 border checkpoint axis,17.8755,102.7150,3.0,3,65,100,155,medium_high,"Route 243 to the Thai-Lao Friendship Bridge border checkpoint has 23,177 AADT in seed data. Strong if site has convenient pre-border/post-border access.",medium,2026-06-01
route212_east_mekong_corridor,Route 212 east Mekong corridor / Nong Khai - Pak Suai,17.9050,102.8300,8.0,4,45,70,110,medium_low,"Route 212 east of Nong Khai has 14,537 AADT and supports Mekong-side district flow. Demand depends on local POIs and charger coverage.",medium_low,2026-06-01
tha_bo_route211_corridor,Tha Bo / Route 211 Mekong west corridor,17.8500,102.5800,10.0,5,35,55,85,medium_low,"Route 211/Tha Bo corridor has moderate district/tourism flow. Better for coverage and destination stopovers than pure utilization.",medium_low,2026-06-01
phon_phisai_route212_corridor,Phon Phisai / Route 212 east district corridor,18.0200,103.0800,12.0,6,30,50,80,low_medium,"District population and Mekong tourism demand; likely lower frequency and more seasonal.",low_medium,2026-06-01
sangkhom_mekong_tourism_axis,Sangkhom Mekong tourism axis,18.0500,102.2700,12.0,7,20,35,60,low,"Scenic Mekong tourism route with low AADT in current seed data. Consider for tourism/coverage goals rather than high base utilization.",low,2026-06-01
