zone_id,name,center_lat,center_lon,radius_km,heat_rank,demand_pool_conservative,demand_pool_base,demand_pool_upside,competition_pressure,capture_notes,confidence,last_verified_date
route1_mae_ka_pratu_chai,Route 1 Mae Ka - Pratu Chai / Phayao city approach,19.1300,99.8800,6.0,1,85,130,200,medium,"Highest current seed AADT point is Route 1 Mae Ka - Pratu Chai at 37,625 AADT. Best first-pass corridor for roadside DC charging between Lampang/Chiang Rai and Phayao city.",medium_high,2026-06-01
kwan_phayao_city_core,Kwan Phayao / Phayao city core,19.1700,99.9000,4.0,2,55,85,130,medium,"Lakefront, government, hotel, food, tourism, and local city demand. Better for destination charging than high-turnover highway charging.",medium,2026-06-01
university_of_phayao_mae_ka,University of Phayao / Mae Ka education cluster,19.0300,99.9000,5.0,3,45,70,110,medium_low,"University and residential demand near Route 1. Useful for repeat local traffic and student/staff destination charging; EV ownership must be verified.",medium_low,2026-06-01
route1021_dok_khamtai_chiang_kham,Route 1021 Dok Khamtai - Chiang Kham axis,19.2300,100.1800,10.0,4,40,65,100,medium_low,"Route 1021 has 9,340 and 8,864 AADT points in seed data. Important east-side district corridor but weaker urban density.",medium,2026-06-01
route1_south_gateway_mae_chai,Route 1 south gateway / Mae Chai - Phayao,19.2600,99.8500,8.0,5,35,55,85,medium_low,"Route 1 northern/southern gateway traffic around Phayao. Good for travel stopover if site has strong roadside amenities.",medium_low,2026-06-01
chiang_kham_phu_sang_tourism,Chiang Kham / Phu Sang tourism and border-side districts,19.5200,100.3000,12.0,6,25,40,65,low,"District and tourism demand toward Phu Sang and northern/eastern Phayao. Likely seasonal and lower throughput.",low_medium,2026-06-01
route120_phayao_wang_nuea,Route 120 Phayao - Wang Nuea scenic connector,19.1700,99.7600,10.0,7,20,35,55,low,"Scenic west-side connector with low AADT in current seed data. Consider only when paired with tourism destination or grant/coverage objective.",low,2026-06-01
