zone_id,name,center_lat,center_lon,radius_km,heat_rank,demand_pool_conservative,demand_pool_base,demand_pool_upside,competition_pressure,capture_notes,confidence,last_verified_date
central_udon_udtown,Central Udon / UD Town / rail-bus urban core,17.4058,102.7998,3.5,1,180,260,380,high,"Primary Udon Thani urban retail, hotel, nightlife, and transport core. Good candidate for destination/urban DC charging if parking, access, and competition are understood.",medium_high,2026-06-01
western_ring_road_route216,Western Ring Road / Route 216,17.4150,102.7550,5.0,2,130,200,300,medium_high,"High AADT ring-road corridor with 31,736 AADT in 2566. Attractive for roadside hub and city bypass demand.",medium,2026-06-01
eastern_ring_road_route216,Eastern Ring Road / Route 216,17.4050,102.8600,5.0,3,110,175,260,medium,"Route 216 east-side ring road with 25,424 AADT in 2566. Needs POI/anchor and competitor verification.",medium,2026-06-01
route2_south_gateway,Route 2 south gateway / Non Sa-at - Udon Thani,17.3300,102.8000,7.0,4,110,170,250,medium,"Intercity Bangkok-Khon Kaen-Udon flow on Route 2, with 28,629 AADT in 2566 south of Udon. Strong for travel stopover if site has highway access.",medium,2026-06-01
route22_nong_han_axis,Route 22 Nong Kham - Nong Han axis,17.4300,102.9000,8.0,5,120,180,270,medium,"Highest 2566 Udon AADT point in seed data, 33,979 on Route 22. Important east/north-east corridor but may be less retail-destination oriented.",medium,2026-06-01
airport_west_udon,Udon Thani Airport / west city access,17.3860,102.7880,4.0,6,80,125,190,medium,"Airport, car rental, hotel, and west-city travel demand. DC demand depends on rental EV penetration and nearby public charger coverage.",medium_low,2026-06-01
nong_prajak_expats_residential,Nong Prajak / expat-residential west city,17.4170,102.7750,3.5,7,70,110,160,medium,"Recreation, expat, residential and hotel demand. Better for urban destination charging than high-throughput corridor hub.",medium_low,2026-06-01
