name_th,name_en,provider,network_suggested,connector_summary,address,province_th,lat,lon,style,source_url
บิ๊กซี เพลซ สระบุรี,BigC Place Saraburi,PTT,EV Station PluZ,CCS2,514 ถ.พหลโยธิน ต.ปากเพรียว อ.เมืองสระบุรี สระบุรี 18000,สระบุรี,14.5391089573,100.910758067,#icon-ci-1-labelson,C:\Users\Lenovo\Downloads\DC EV Charging Station Thailand - Piyamate Wisanuvej.kmz
มีทแอนด์อีท ศูนย์รวมความอร่อยนครปฐม,Meet&Eat,PTT,EV Station PluZ,CCS2,161 ถ.เทศา  ต.พระประโทน อ.เมืองนครปฐม นครปฐม 73000,นครปฐม,13.8197491868,100.0787234988,#icon-ci-1-labelson,C:\Users\Lenovo\Downloads\DC EV Charging Station Thailand - Piyamate Wisanuvej.kmz
ปตท บจ.มนิตา ออยล์ แอนด์ เซอร์วิส,PTT Manita Oil and Service,PTT,EV Station PluZ,CCS2,1/4 ม.4 ต.ท่าโรงช้าง อ.พุนพิน สุราษฎร์ธานี 84130,สุราษฎร์ธานี,9.067994,99.17473,#icon-ci-1-labelson,C:\Users\Lenovo\Downloads\DC EV Charging Station Thailand - Piyamate Wisanuvej.kmz
ลานจอดรถ ซียู สปอร์ต,CU Sport Zone Parking,PTT,EV Station PluZ,"CCS2, Type 2",215 ซ.จุฬาลงกรณ์ 10 แขวงวังใหม่ เขตปทุมวัน กรุงเทพมหานคร 10330,กรุงเทพมหานคร,13.74436,100.5239,#icon-ci-1-labelson,C:\Users\Lenovo\Downloads\DC EV Charging Station Thailand - Piyamate Wisanuvej.kmz
สำนักงานคณะกรรมการอาหารและยา,Food and Drug Administration,PTT,EV Station PluZ,CCS2,88/24 ม.4 ต.ตลาดขวัญ อ.เมืองนนทบุรี นนทบุรี 11000,นนทบุรี,13.847014,100.527203,#icon-ci-1-labelson,C:\Users\Lenovo\Downloads\DC EV Charging Station Thailand - Piyamate Wisanuvej.kmz
โตโยต้า อะไลฟ์ สเปซ,Toyota Alive Space,PTT,EV Station PluZ,"CCS2, Type 2",753 ถ.เทพรัตน แขวงบางนาเหนือ เขตบางนา กรุงเทพมหานคร 10260,กรุงเทพมหานคร,13.66798,100.6371,#icon-ci-1-labelson,C:\Users\Lenovo\Downloads\DC EV Charging Station Thailand - Piyamate Wisanuvej.kmz
ปตท บจ.เลิศฐิตินันท์ ปิโตรเลียม,PTT Lertthitinan Petroleum,PTT,EV Station PluZ,CCS2,969 ม.1 ต.บางปู อ.เมืองสมุทรปราการ สมุทรปราการ 10280,สมุทรปราการ,13.505451,100.73488,#icon-ci-1-labelson,C:\Users\Lenovo\Downloads\DC EV Charging Station Thailand - Piyamate Wisanuvej.kmz
บิ๊กซี รังสิต คลอง 6,BigC Rangsit Khlong 6,PTT,EV Station PluZ,CCS2,158/17 ต.รังสิต อ.ธัญบุรี ปทุมธานี 12110,ปทุมธานี,14.0258108146,100.7429275083,#icon-ci-1-labelson,C:\Users\Lenovo\Downloads\DC EV Charging Station Thailand - Piyamate Wisanuvej.kmz
ปตท บจ.สุขุมเซอร์วิส (สารภี),PTT Sukhum Service (Saraphi),PTT,EV Station PluZ,CCS2,169 ม.3 ถ.เชียงใหม่-ลำปาง ต.สารภี อ.สารภี เชียงใหม่ 50140,เชียงใหม่,18.67862,99.05002,#icon-ci-1-labelson,C:\Users\Lenovo\Downloads\DC EV Charging Station Thailand - Piyamate Wisanuvej.kmz
คาเฟ่ อเมซอน สเปซ พุทธมณฑล สาย 3,Café Amazon Space Phutthamonthon Sai 3,PTT,EV Station PluZ,CCS2,655 ถ.บรมราชชนนี แขวงศาลาธรรมสพน์ เขตทวีวัฒนา กรุงเทพมหานคร 10170,กรุงเทพมหานคร,13.78788,100.35844,#icon-ci-1-labelson,C:\Users\Lenovo\Downloads\DC EV Charging Station Thailand - Piyamate Wisanuvej.kmz
ปตท บจ.พี.เอ็น.เอช.ดับบลิว ปิโตรเลียม,PTT P.N.H.W. Petroleum,PTT,EV Station PluZ,CCS2,131 ม.2 ต.หนองตะพาน อ.บ้านค่าย ระยอง 21120,ระยอง,12.75092,101.2864,#icon-ci-1-labelson,C:\Users\Lenovo\Downloads\DC EV Charging Station Thailand - Piyamate Wisanuvej.kmz
ปตท หจก.รัตนปิโตรเลียม,PTT Rattana Petroleum,PTT,EV Station PluZ,CCS2,44/2 ม.1 ถ.ระยอง-บ้านค่าย ต.หนองตะพาน อ.บ้านค่าย ระยอง 21120,ระยอง,12.73435,101.2822,#icon-ci-1-labelson,C:\Users\Lenovo\Downloads\DC EV Charging Station Thailand - Piyamate Wisanuvej.kmz
ปตท บจ.วงษ์ไอริณ,PTT Wong Irin,PTT,EV Station PluZ,CCS2,99 ม.2 ต.ท่าเสา อ.ไทรโยค กาญจนบุรี 71150,กาญจนบุรี,14.211098,99.086707,#icon-ci-1-labelson,C:\Users\Lenovo\Downloads\DC EV Charging Station Thailand - Piyamate Wisanuvej.kmz
ปตท บจ.จอมทองสิขรีปิโตรเลียม,PTT Jomthong Sikharee Petroluem,PTT,EV Station PluZ,CCS2,126 ม.9 ต.เทพกระษัตรี อ.ถลาง ภูเก็ต 83110,ภูเก็ต,8.0751,98.34411,#icon-ci-1-labelson,C:\Users\Lenovo\Downloads\DC EV Charging Station Thailand - Piyamate Wisanuvej.kmz
ปตท บจ.พี.โอ.เอ ปิโตรเลี่ยมชัยนาท,PTT P.O.A Petroleum Chainat,PTT,EV Station PluZ,CCS2,335/3  ถ.พหลโยธิน ต.เขาท่าพระ อ.เมืองชัยนาท ชัยนาท 17000,ชัยนาท,15.22257,100.1724,#icon-ci-1-labelson,C:\Users\Lenovo\Downloads\DC EV Charging Station Thailand - Piyamate Wisanuvej.kmz
ปตท บจ.พี ที ไพรัช ปิโตรเลียม เซอร์วิส,PTT P.T. Pairat Petroleum Service,PTT,EV Station PluZ,CCS2,109 ม.17 ถ.นครสวรรค์-พิษณุโลก ต.เนินปอ อ.สามง่าม พิจิตร 66140,พิจิตร,16.4023,100.1411,#icon-ci-1-labelson,C:\Users\Lenovo\Downloads\DC EV Charging Station Thailand - Piyamate Wisanuvej.kmz
ปตท บจ.ไพศาลพลังไทย กาญจนา,PTT Phaisan Phalang Thai Kanchana,PTT,EV Station PluZ,CCS2,30 ม.9 ต.คลองข่อย อ.ปากเกร็ด นนทบุรี 11120,นนทบุรี,13.97389,100.4364,#icon-ci-1-labelson,C:\Users\Lenovo\Downloads\DC EV Charging Station Thailand - Piyamate Wisanuvej.kmz
ปตท บจ.แม่กรณ์ปิโตรเลียม (แม่ลาว),PTT Maekorn Petroleum (Mae Lao),PTT,EV Station PluZ,CCS2,226 ม.7 ต.ป่าก่อดำ อ.แม่ลาว เชียงราย 57250,เชียงราย,19.76896,99.73646,#icon-ci-1-labelson,C:\Users\Lenovo\Downloads\DC EV Charging Station Thailand - Piyamate Wisanuvej.kmz
ปตท วงแหวนตะวันตก (ขาเข้า),PTT Western Ring (IB),PTT,EV Station PluZ,CCS2,58 ม.1 ต.บางกระบือ อ.สามโคก ปทุมธานี 12160,ปทุมธานี,14.110117,100.533324,#icon-ci-1-labelson,C:\Users\Lenovo\Downloads\DC EV Charging Station Thailand - Piyamate Wisanuvej.kmz
ปตท พระราม 2 (ขาเข้า),PTT Rama 2 (IB),PTT,EV Station PluZ,"CCS2, Type 2",59/29  ม.1 ต.คอกกระบือ อ.เมืองสมุทรสาคร สมุทรสาคร 74000,สมุทรสาคร,13.5935,100.3381,#icon-ci-1-labelson,C:\Users\Lenovo\Downloads\DC EV Charging Station Thailand - Piyamate Wisanuvej.kmz
ปตท บรมราชชนนี ขาเข้า,PTT Borommaratchachonnani (IB),PTT,EV Station PluZ,"CCS2, Type 2",302/1  ถ.บรมราชชนนี แขวงฉิมพลี เขตตลิ่งชัน กรุงเทพมหานคร 10170,กรุงเทพมหานคร,13.78268,100.4156,#icon-ci-1-labelson,C:\Users\Lenovo\Downloads\DC EV Charging Station Thailand - Piyamate Wisanuvej.kmz
ปตท ราชพฤกษ์ 1,PTT Ratchaphruek 1,PTT,EV Station PluZ,"CCS2, Type 2",31/12  ม.13 แขวงบางระมาด เขตตลิ่งชัน กรุงเทพมหานคร 10170,กรุงเทพมหานคร,13.76199,100.4445,#icon-ci-1-labelson,C:\Users\Lenovo\Downloads\DC EV Charging Station Thailand - Piyamate Wisanuvej.kmz
ปตท เอกมัย- รามอินทรา,PTT Ekkamai-Ramintra,PTT,EV Station PluZ,CCS2,31/1  ถ.ประดิษฐ์มนูธรรม แขวงลาดพร้าว เขตลาดพร้าว กรุงเทพมหานคร 10230,กรุงเทพมหานคร,13.79816,100.6133,#icon-ci-1-labelson,C:\Users\Lenovo\Downloads\DC EV Charging Station Thailand - Piyamate Wisanuvej.kmz
ปตท บจ.เจ.เอ็ม.ดับเบิ้ลยู. หัวหิน,PTT J.M.W. Hua Hin,PTT,EV Station PluZ,CCS2,11/48 ซ.หมู่บ้านสมอโพรง  ต.หัวหิน อ.หัวหิน ประจวบคีรีขันธ์ 77110,ประจวบคีรีขันธ์,12.5960570505,99.9454595827,#icon-ci-1-labelson,C:\Users\Lenovo\Downloads\DC EV Charging Station Thailand - Piyamate Wisanuvej.kmz
ปตท ราษฎร์บูรณะ ขาออก,PTT Ratburana (OB),PTT,EV Station PluZ,"CCS2, Type 2",193/2  ถ.ราษฎร์บูรณะ แขวงบางปะกอก เขตราษฎร์บูรณะ กรุงเทพมหานคร 10140,กรุงเทพมหานคร,13.68338,100.4991,#icon-ci-1-labelson,C:\Users\Lenovo\Downloads\DC EV Charging Station Thailand - Piyamate Wisanuvej.kmz
ปตท แยกสันติสุข,PTT Santisuk Intersection,PTT,EV Station PluZ,CCS2,52/78  ถ.ปทุมสามโคก ต.บางปรอก อ.เมืองปทุมธานี ปทุมธานี 12000,ปทุมธานี,14.03048,100.5316,#icon-ci-1-labelson,C:\Users\Lenovo\Downloads\DC EV Charging Station Thailand - Piyamate Wisanuvej.kmz
บิ๊กซี เอ็กซ์ตร้า อ่อนนุช,BigC Extra On Nut,PTT,EV Station PluZ,CCS2,114 ซ.ซ.สุขุมวิท 77 (อ่อนนุช 1)  แขวงพระโขนงเหนือ เขตวัฒนา กรุงเทพมหานคร 10110,กรุงเทพมหานคร,13.70976,100.601391,#icon-ci-1-labelson,C:\Users\Lenovo\Downloads\DC EV Charging Station Thailand - Piyamate Wisanuvej.kmz
ปตท พุทธมณฑล สาย 5,PTT Phutthamonthon Sai 5,PTT,EV Station PluZ,"CCS2, Type 2",73/1  ม.10 ต.ไร่ขิง อ.สามพราน นครปฐม 73210,นครปฐม,13.72965,100.2987,#icon-ci-1-labelson,C:\Users\Lenovo\Downloads\DC EV Charging Station Thailand - Piyamate Wisanuvej.kmz
ปตท โรงแยกก๊าซระยอง,PTT Rayong Gas Separation Plant,PTT,EV Station PluZ,"CCS2, Type 2",555/1 ถ.สุขุมวิท ต.มาบตาพุด อ.เมืองระยอง ระยอง 21150,ระยอง,12.72254,101.1519,#icon-ci-1-labelson,C:\Users\Lenovo\Downloads\DC EV Charging Station Thailand - Piyamate Wisanuvej.kmz
ปตท คลองหลวง กม.6,PTT Khlong Luang km.6,PTT,EV Station PluZ,"CCS2, Type 2",10/12 ม.7 ต.คลองสาม อ.คลองหลวง ปทุมธานี 12120,ปทุมธานี,14.06657,100.6729,#icon-ci-1-labelson,C:\Users\Lenovo\Downloads\DC EV Charging Station Thailand - Piyamate Wisanuvej.kmz
ปตท หจก.รวมนคร,PTT Ruam Nakhon,PTT,EV Station PluZ,CCS2,4/29 ม.4 ถ.นครชัยศรี-ห้วยพลู ต.ดอนแฝก อ.นครชัยศรี นครปฐม 73120,นครปฐม,13.86127,100.2065,#icon-ci-1-labelson,C:\Users\Lenovo\Downloads\DC EV Charging Station Thailand - Piyamate Wisanuvej.kmz
ปตท พุทธมณฑล สาย 4,PTT Phutthamonthon Sai 4,PTT,EV Station PluZ,"CCS2, Type 2",187 ม.7 ต.กระทุ่มล้ม อ.สามพราน นครปฐม 73220,นครปฐม,13.74399,100.328,#icon-ci-1-labelson,C:\Users\Lenovo\Downloads\DC EV Charging Station Thailand - Piyamate Wisanuvej.kmz
ปตท เมืองขอนแก่น,PTT Muang Khon Kaen,PTT,EV Station PluZ,"CCS2, Type 2",117/2  ม.7 ถ.มิตรภาพ ต.ในเมือง อ.เมืองขอนแก่น ขอนแก่น 40000,ขอนแก่น,16.41328,102.8187,#icon-ci-1-labelson,C:\Users\Lenovo\Downloads\DC EV Charging Station Thailand - Piyamate Wisanuvej.kmz
ปตท สารภี,PTT Saraphi,PTT,EV Station PluZ,CCS2,75 ถ.สายเชียงใหม่-ลำปาง ต.สารภี อ.สารภี เชียงใหม่ 50140,เชียงใหม่,18.66963,99.05187,#icon-ci-1-labelson,C:\Users\Lenovo\Downloads\DC EV Charging Station Thailand - Piyamate Wisanuvej.kmz
ปตท หาดใหญ่ใน (ขาออก),PTT Hat Yai Nai (OB),PTT,EV Station PluZ,"CCS2, Type 2",1121 ถ.เพชรเกษม ต.หาดใหญ่ อ.หาดใหญ่ สงขลา 90110,สงขลา,7.000368,100.4524,#icon-ci-1-labelson,C:\Users\Lenovo\Downloads\DC EV Charging Station Thailand - Piyamate Wisanuvej.kmz
ปตท ทุ่งครุ,PTT Thung Khru,PTT,EV Station PluZ,"CCS2, Type 2",26/4  ถ.เลียบทางด่วน แขวงทุ่งครุ เขตทุ่งครุ กรุงเทพมหานคร 10140,กรุงเทพมหานคร,13.62046,100.4923,#icon-ci-1-labelson,C:\Users\Lenovo\Downloads\DC EV Charging Station Thailand - Piyamate Wisanuvej.kmz
ปตท แยกประชาอุทิศ ลาดพร้าว,PTT Pracha Uthit- Ladprao,PTT,EV Station PluZ,"CCS2, Type 2",359 ถ.ประดิษฐ์มนูธรรม แขวงวังทองหลาง เขตวังทองหลาง กรุงเทพมหานคร 10310,กรุงเทพมหานคร,13.77151,100.6052,#icon-ci-1-labelson,C:\Users\Lenovo\Downloads\DC EV Charging Station Thailand - Piyamate Wisanuvej.kmz
ปตท สระบุรี (ฮับ),PTT Saraburi (HUB),PTT,EV Station PluZ,CCS2,112 ม.2 ถ.มิตรภาพ ต.ตลิ่งชัน อ.เมืองสระบุรี สระบุรี 18000,สระบุรี,14.5537,100.9662,#icon-ci-1-labelson,C:\Users\Lenovo\Downloads\DC EV Charging Station Thailand - Piyamate Wisanuvej.kmz
ปตท พัฒนาการ (ขาออก),PTT Phatthanakan (OB),PTT,EV Station PluZ,"CCS2, Type 2",315/4  ถ.พัฒนาการ แขวงประเวศ เขตประเวศ กรุงเทพมหานคร 10250,กรุงเทพมหานคร,13.72503,100.6579,#icon-ci-1-labelson,C:\Users\Lenovo\Downloads\DC EV Charging Station Thailand - Piyamate Wisanuvej.kmz
ปตท พหลโยธิน กม.25,PTT Phahon Yothin km.25,PTT,EV Station PluZ,"CCS2, Type 2",438 ถ.พหลโยธิน แขวงสายไหม เขตสายไหม กรุงเทพมหานคร 10220,กรุงเทพมหานคร,13.93426,100.6257,#icon-ci-1-labelson,C:\Users\Lenovo\Downloads\DC EV Charging Station Thailand - Piyamate Wisanuvej.kmz
ปตท อาร์เอ็ม ระยอง-บ้านฉาง กม.192 (ขาเข้า),PTT RM Rayong-Banchang Km.192 (IB),PTT,EV Station PluZ,"CCS2, Type 2",76/119  ม.3 ต.พลา อ.บ้านฉาง ระยอง 21130,ระยอง,12.716053,101.040015,#icon-ci-1-labelson,C:\Users\Lenovo\Downloads\DC EV Charging Station Thailand - Piyamate Wisanuvej.kmz
ปตท บจ.ปิโตรเลียม (ถ.347),PTT Petroleum (347 Rd.),PTT,EV Station PluZ,"CCS2, Type 2",99 ม.1 ต.เชียงรากน้อย อ.สามโคก ปทุมธานี 12160,ปทุมธานี,14.11337,100.5696,#icon-ci-1-labelson,C:\Users\Lenovo\Downloads\DC EV Charging Station Thailand - Piyamate Wisanuvej.kmz
ปตท บจ.มานะชัยบริการ,PTT Manachai Services,PTT,EV Station PluZ,"CCS2, Type 2",30/7  ม.4 ถ.เพชรเกษม ต.ท่าตำหนัก อ.นครชัยศรี นครปฐม 73120,นครปฐม,13.7799299317,100.1757139401,#icon-ci-1-labelson,C:\Users\Lenovo\Downloads\DC EV Charging Station Thailand - Piyamate Wisanuvej.kmz
ปตท บจ.ไนซ์ปิโตรเลียมเพชรบุรี,PTT Nice Petroleum Phetchaburi,PTT,EV Station PluZ,"CCS2, Type 2",159 ม.5 ต.ไร่ส้ม อ.เมืองเพชรบุรี เพชรบุรี 76000,เพชรบุรี,13.11808,99.90798,#icon-ci-1-labelson,C:\Users\Lenovo\Downloads\DC EV Charging Station Thailand - Piyamate Wisanuvej.kmz
ปตท บจ.เฮงปิโตรเลียมบริการ 2013,PTT Heng Petroleum Services 2013,PTT,EV Station PluZ,"CCS2, Type 2",99 ม.2 ต.ท่ายาง อ.ท่ายาง เพชรบุรี 76130,เพชรบุรี,12.987537,99.9009,#icon-ci-1-labelson,C:\Users\Lenovo\Downloads\DC EV Charging Station Thailand - Piyamate Wisanuvej.kmz
ปตท เพื่อสวัสดิการกรมพัฒนนาสังคมและสวัสดิการ,PTT Department of Social Development and Welfare,PTT,EV Station PluZ,CCS2,17 ม.2 ต.รังสิต อ.ธัญบุรี ปทุมธานี 12110,ปทุมธานี,14.01573,100.7224,#icon-ci-1-labelson,C:\Users\Lenovo\Downloads\DC EV Charging Station Thailand - Piyamate Wisanuvej.kmz
ปตท กาญจนาภิเษก-บางบอน,PTT Kanchanapisek-Bangbon,PTT,EV Station PluZ,"CCS2, Type 2",97/1  ถ.กาญจนาภิเษก แขวงบางบอนเหนือ เขตบางบอน กรุงเทพมหานคร 10150,กรุงเทพมหานคร,13.67203,100.4051,#icon-ci-1-labelson,C:\Users\Lenovo\Downloads\DC EV Charging Station Thailand - Piyamate Wisanuvej.kmz
ปตท มีนบุรี,PTT Minburi,PTT,EV Station PluZ,"CCS2, Type 2",75/5  ถ.สุวินทวงศ์ แขวงมีนบุรี เขตมีนบุรี กรุงเทพมหานคร 10510,กรุงเทพมหานคร,13.81944,100.7339,#icon-ci-1-labelson,C:\Users\Lenovo\Downloads\DC EV Charging Station Thailand - Piyamate Wisanuvej.kmz
ปตท เทพรักษ์,PTT Theprak,PTT,EV Station PluZ,"CCS2, Type 2",202/1  ถ.เทพรักษ์ แขวงท่าแร้ง เขตบางเขน กรุงเทพมหานคร 10220,กรุงเทพมหานคร,13.8787,100.6306,#icon-ci-1-labelson,C:\Users\Lenovo\Downloads\DC EV Charging Station Thailand - Piyamate Wisanuvej.kmz
ปตท เมืองขอนแก่น 2,PTT Muang Khon Kaen 2,PTT,EV Station PluZ,CCS2,92/120  ม.14 ต.ในเมือง อ.เมืองขอนแก่น ขอนแก่น 40000,ขอนแก่น,16.45157,102.831,#icon-ci-1-labelson,C:\Users\Lenovo\Downloads\DC EV Charging Station Thailand - Piyamate Wisanuvej.kmz
ปตท หจก.ภูฆัง ออยล์,PTT Phukang Oil,PTT,EV Station PluZ,CCS2,98 ม.5 ต.ไทรน้อย อ.ไทรน้อย นนทบุรี 11150,นนทบุรี,13.981987,100.320942,#icon-ci-1-labelson,C:\Users\Lenovo\Downloads\DC EV Charging Station Thailand - Piyamate Wisanuvej.kmz
โรงพยาบาลเปาโล รังสิต,Paolo Rangsit Hospital,PTT,EV Station PluZ,CCS2,01/11 ถ.รังสิต-นครนายก ต.ประชาธิปัตย์ อ.ธัญบุรี ปทุมธานี 12130,ปทุมธานี,13.98588,100.6203,#icon-ci-1-labelson,C:\Users\Lenovo\Downloads\DC EV Charging Station Thailand - Piyamate Wisanuvej.kmz
ปตท สิชล,PTT Sichon,PTT,EV Station PluZ,"CCS2, Type 2",40 ม.9 ต.สิชล อ.สิชล นครศรีธรรมราช 80120,นครศรีธรรมราช,9.003069,99.881517,#icon-ci-1-labelson,C:\Users\Lenovo\Downloads\DC EV Charging Station Thailand - Piyamate Wisanuvej.kmz
ปตท ภูเก็ต,PTT Phuket,PTT,EV Station PluZ,"CCS2, Type 2",205 ม.1 ต.ศรีสุนทร อ.ถลาง ภูเก็ต 83110,ภูเก็ต,8.004379,98.343311,#icon-ci-1-labelson,C:\Users\Lenovo\Downloads\DC EV Charging Station Thailand - Piyamate Wisanuvej.kmz
ปตท สวนผัก,PTT Suan Phak,PTT,EV Station PluZ,"CCS2, Type 2",79 ถ.สวนผัก แขวงฉิมพลี เขตตลิ่งชัน กรุงเทพมหานคร 10170,กรุงเทพมหานคร,13.79249,100.4223,#icon-ci-1-labelson,C:\Users\Lenovo\Downloads\DC EV Charging Station Thailand - Piyamate Wisanuvej.kmz
บิ๊กซี ฟู้ดเพลส ประชาอุทิศ 90,BigC Foodplace Pracha Uthit 90,PTT,EV Station PluZ,CCS2,523-523/3   ถ.ประชาอุทิศ  แขวงทุ่งครุ เขตทุ่งครุ กรุงเทพมหานคร 10140,กรุงเทพมหานคร,13.611668,100.51071,#icon-ci-1-labelson,C:\Users\Lenovo\Downloads\DC EV Charging Station Thailand - Piyamate Wisanuvej.kmz
ปตท หจก.มานะ-เสริมพล ปิโตรเลียม,PTT Mana Sermpol Petroleum,PTT,EV Station PluZ,"CCS2, Type 2",256-257  ม.7 ถ.โชคชัย-เดชอุดม ต.หนองโบสถ์ อ.นางรอง บุรีรัมย์ 31110,บุรีรัมย์,14.63481,102.7458,#icon-ci-1-labelson,C:\Users\Lenovo\Downloads\DC EV Charging Station Thailand - Piyamate Wisanuvej.kmz
ปตท สนามบินกระบี่,PTT Krabi International Airport,PTT,EV Station PluZ,"CCS2, Type 2",327/4 ม.2 ต.กระบี่น้อย อ.เมืองกระบี่ กระบี่ 81000,กระบี่,8.102694,98.96747,#icon-ci-1-labelson,C:\Users\Lenovo\Downloads\DC EV Charging Station Thailand - Piyamate Wisanuvej.kmz
ปตท ชะอำ,PTT Cha Am,PTT,EV Station PluZ,CCS2,499/1  ถ.เพชรเกษม(ชะอำ) ต.ชะอำ อ.ชะอำ เพชรบุรี 76120,เพชรบุรี,12.79909,99.97192,#icon-ci-1-labelson,C:\Users\Lenovo\Downloads\DC EV Charging Station Thailand - Piyamate Wisanuvej.kmz
ปตท ประชาชื่น 2,PTT Phachachuen 2,PTT,EV Station PluZ,"CCS2, Type 2",7/4 ถ.ประชาชื่นนนทบุรี ต.ท่าทราย อ.เมืองนนทบุรี นนทบุรี 11000,นนทบุรี,13.873997,100.548587,#icon-ci-1-labelson,C:\Users\Lenovo\Downloads\DC EV Charging Station Thailand - Piyamate Wisanuvej.kmz
ปตท บจ.สร้างเสริมเพิ่มทรัพย์,PTT Sangsermpermsub,PTT,EV Station PluZ,CCS2,96 ม.1 ต.หนองน้ำใหญ่ อ.ผักไห่ พระนครศรีอยุธยา 13280,พระนครศรีอยุธยา,14.484461,100.336576,#icon-ci-1-labelson,C:\Users\Lenovo\Downloads\DC EV Charging Station Thailand - Piyamate Wisanuvej.kmz
ปตท วิภาวดี (เดิม-สวัสดิการ ร.1 รอ.),PTT Vibhavadi,PTT,EV Station PluZ,"CCS2, Type 2",181 ถ.วิภาวดีรังสิต แขวงสามเสนใน เขตพญาไท กรุงเทพมหานคร 10400,กรุงเทพมหานคร,13.77939,100.5561,#icon-ci-1-labelson,C:\Users\Lenovo\Downloads\DC EV Charging Station Thailand - Piyamate Wisanuvej.kmz
ปตท ราชบุรี,PTT Ratchaburi,PTT,EV Station PluZ,"CCS2, Type 2",218 ม.4 ต.อ่างทอง อ.เมืองราชบุรี ราชบุรี 70000,ราชบุรี,13.46737,99.79778,#icon-ci-1-labelson,C:\Users\Lenovo\Downloads\DC EV Charging Station Thailand - Piyamate Wisanuvej.kmz
ปตท ท่ามะขาม,PTT Tha Makham,PTT,EV Station PluZ,CCS2,116/2  ม.5 ต.ท่ามะขาม อ.เมืองกาญจนบุรี กาญจนบุรี 71000,กาญจนบุรี,14.05405,99.50109,#icon-ci-1-labelson,C:\Users\Lenovo\Downloads\DC EV Charging Station Thailand - Piyamate Wisanuvej.kmz
ปตท บจ.เกียรติสมพงษ์,PTT Kiat Sompong,PTT,EV Station PluZ,"CCS2, Type 2",17/3  ม.7 ถ.พหลโยธิน ต.ยางตาล อ.โกรกพระ นครสวรรค์ 60170,นครสวรรค์,15.57763,100.1254,#icon-ci-1-labelson,C:\Users\Lenovo\Downloads\DC EV Charging Station Thailand - Piyamate Wisanuvej.kmz
ปตท บจ.ธรรมรัตน์ ปิโตรเลียม,PTT Thamrat Petroleum,PTT,EV Station PluZ,"CCS2, Type 2",8/13 ม.13 ถ.พหลโยธิน ต.นครชุม อ.เมืองกำแพงเพชร กำแพงเพชร 62000,กำแพงเพชร,16.4706638906,99.4957314292,#icon-ci-1-labelson,C:\Users\Lenovo\Downloads\DC EV Charging Station Thailand - Piyamate Wisanuvej.kmz
ปตท หายยา,PTT Haiya,PTT,EV Station PluZ,"CCS2, Type 2",235/1  ถ.มหิดล ต.ช้างคลาน อ.เมืองเชียงใหม่ เชียงใหม่ 50100,เชียงใหม่,18.76797,98.98354,#icon-ci-1-labelson,C:\Users\Lenovo\Downloads\DC EV Charging Station Thailand - Piyamate Wisanuvej.kmz
ปตท สันกำแพง,PTT San Kamphaeng,PTT,EV Station PluZ,"CCS2, Type 2",209 ม.8 ต.ต้นเปา อ.สันกำแพง เชียงใหม่ 50130,เชียงใหม่,18.75111,99.06314,#icon-ci-1-labelson,C:\Users\Lenovo\Downloads\DC EV Charging Station Thailand - Piyamate Wisanuvej.kmz
ปตท บจ.พงษ์กิต (7) (บายพาส),PTT Pongkit (7) (Bypass),PTT,EV Station PluZ,"CCS2, Type 2",325 ม.1 ต.ปรุใหญ่ อ.เมืองนครราชสีมา นครราชสีมา 30000,นครราชสีมา,14.98612,102.0522,#icon-ci-1-labelson,C:\Users\Lenovo\Downloads\DC EV Charging Station Thailand - Piyamate Wisanuvej.kmz
ปตท หจก.การดี ปิโตรเลียม,PTT Karndee Petroleum,PTT,EV Station PluZ,"CCS2, Type 2",244 ถ.อุบล-ตระการ ต.ในเมือง อ.เมืองอุบลราชธานี อุบลราชธานี 34000,อุบลราชธานี,15.2522,104.8806,#icon-ci-1-labelson,C:\Users\Lenovo\Downloads\DC EV Charging Station Thailand - Piyamate Wisanuvej.kmz
ปตท ลำพูน-ดอยติ,PTT Lumpoon-Doiti,PTT,EV Station PluZ,"CCS2, Type 2",352 ม.2 ต.เวียงยอง อ.เมืองลำพูน ลำพูน 51000,ลำพูน,18.56265,99.0335,#icon-ci-1-labelson,C:\Users\Lenovo\Downloads\DC EV Charging Station Thailand - Piyamate Wisanuvej.kmz
ปตท บจ.ธ.1994 ปิโตรเลียม (ขาออก),PTT Tor. 1994 Petroleum (OB),PTT,EV Station PluZ,"CCS2, Type 2",163/2  ม.12 ถ.พหลโยธิน ต.ล้อมแรด อ.เถิน ลำปาง 52160,ลำปาง,17.61983,99.23365,#icon-ci-1-labelson,C:\Users\Lenovo\Downloads\DC EV Charging Station Thailand - Piyamate Wisanuvej.kmz
ปตท บจ.ส.สมบูรณ์ทรัพย์ปิโตรเลียม,PTT Sor Somboonsub Petroleum,PTT,EV Station PluZ,"CCS2, Type 2",129 ม.10 ถ.เพชรเกษม ต.สามกระทาย อ.กุยบุรี ประจวบคีรีขันธ์ 77150,ประจวบคีรีขันธ์,12.10257,99.85311,#icon-ci-1-labelson,C:\Users\Lenovo\Downloads\DC EV Charging Station Thailand - Piyamate Wisanuvej.kmz
ปตท บจ. สามร้อยยอด,PTT Samroiyod,PTT,EV Station PluZ,CCS2,255/1  ม.1 ต.ไร่เก่า อ.สามร้อยยอด ประจวบคีรีขันธ์ 77180,ประจวบคีรีขันธ์,12.22538,99.86777,#icon-ci-1-labelson,C:\Users\Lenovo\Downloads\DC EV Charging Station Thailand - Piyamate Wisanuvej.kmz
ปตท บจ.ช้างเผือกปิโตรเลียม,PTT Chang Phueak Petroleum,PTT,EV Station PluZ,"CCS2, Type 2",559 ม.4 ต.ร่อนทอง อ.บางสะพาน ประจวบคีรีขันธ์ 77230,ประจวบคีรีขันธ์,11.26458,99.43796,#icon-ci-1-labelson,C:\Users\Lenovo\Downloads\DC EV Charging Station Thailand - Piyamate Wisanuvej.kmz
ปตท สวัสดิการกองบิน 1,PTT Sawatdekarnkongbin 1,PTT,EV Station PluZ,"CCS2, Type 2",1 ม.1 ต.หนองไผ่ล้อม อ.เมืองนครราชสีมา นครราชสีมา 30000,นครราชสีมา,14.93135,102.0567,#icon-ci-1-labelson,C:\Users\Lenovo\Downloads\DC EV Charging Station Thailand - Piyamate Wisanuvej.kmz
ปตท เมืองบุรีรัมย์,PTT Muang Buriram,PTT,EV Station PluZ,CCS2,148 ม.16 ต.เสม็ด อ.เมืองบุรีรัมย์ บุรีรัมย์ 31000,บุรีรัมย์,14.96375,103.0957,#icon-ci-1-labelson,C:\Users\Lenovo\Downloads\DC EV Charging Station Thailand - Piyamate Wisanuvej.kmz
ปตท หจก.อธิรุ่งโรจน์,PTT Athirungroaj,PTT,EV Station PluZ,"CCS2, Type 2",343 ม.3 ต.แจระแม อ.เมืองอุบลราชธานี อุบลราชธานี 34000,อุบลราชธานี,15.27415,104.8049,#icon-ci-1-labelson,C:\Users\Lenovo\Downloads\DC EV Charging Station Thailand - Piyamate Wisanuvej.kmz
ปตท บจ.ไทยเจริญ เพทโทรล,PTT Thaicharoen Petrol Station,PTT,EV Station PluZ,"CCS2, Type 2","252/8-9,10  ถ.ประจักษ์ศิลปาคม ต.หมากแข้ง อ.เมืองอุดรธานี อุดรธานี 41000",อุดรธานี,17.40519,102.7977,#icon-ci-1-labelson,C:\Users\Lenovo\Downloads\DC EV Charging Station Thailand - Piyamate Wisanuvej.kmz
ปตท หจก.ถาวรชัยลำปาง,PTT Thavornchai Lampang,PTT,EV Station PluZ,"CCS2, Type 2",26 ถ.ไฮเวย์ลำปาง-งาว ต.ชมพู อ.เมืองลำปาง ลำปาง 52100,ลำปาง,18.26242,99.46678,#icon-ci-1-labelson,C:\Users\Lenovo\Downloads\DC EV Charging Station Thailand - Piyamate Wisanuvej.kmz
ปตท ตาก (ตากเคทีแอนด์ชันส์),PTT Tak (Tak KT & Son),PTT,EV Station PluZ,CCS2,5 ถ.พหลโยธิน ต.เชียงเงิน อ.เมืองตาก ตาก 63000,ตาก,16.86123,99.13501,#icon-ci-1-labelson,C:\Users\Lenovo\Downloads\DC EV Charging Station Thailand - Piyamate Wisanuvej.kmz
ปตท ดู่ใต้,PTT Du Tai,PTT,EV Station PluZ,"CCS2, Type 2",110 ม.12 ถ.เจ้าฟ้า ต.ดู่ใต้ อ.เมืองน่าน น่าน 55000,น่าน,18.74738,100.7565,#icon-ci-1-labelson,C:\Users\Lenovo\Downloads\DC EV Charging Station Thailand - Piyamate Wisanuvej.kmz
ปตท พิษณุโลก,PTT Phitsanulok,PTT,EV Station PluZ,CCS2,958 ม.7 ถ.พิษณุโลก-หล่มสัก ต.สมอแข อ.เมืองพิษณุโลก พิษณุโลก 65000,พิษณุโลก,16.8175,100.319,#icon-ci-1-labelson,C:\Users\Lenovo\Downloads\DC EV Charging Station Thailand - Piyamate Wisanuvej.kmz
ปตท สวัสดิการมหาวิทยาลัยราชภัฏเพชรบูรณ์,PTT Phetchabun Rajabhat University,PTT,EV Station PluZ,"CCS2, Type 2",85/84  ม.11 ต.สะเดียง อ.เมืองเพชรบูรณ์ เพชรบูรณ์ 67000,เพชรบูรณ์,16.45338,101.1535,#icon-ci-1-labelson,C:\Users\Lenovo\Downloads\DC EV Charging Station Thailand - Piyamate Wisanuvej.kmz
ปตท บจ.พลกฤตเซอร์วิสเอ็นเนอร์ยี่,PTT Polakred Service Energy,PTT,EV Station PluZ,"CCS2, Type 2",187 ม.8 ต.นาจักร อ.เมืองแพร่ แพร่ 54000,แพร่,18.11715,100.1531,#icon-ci-1-labelson,C:\Users\Lenovo\Downloads\DC EV Charging Station Thailand - Piyamate Wisanuvej.kmz
ปตท หจก.กัลปพฤกษ์,PTT Galaphaphruek,PTT,EV Station PluZ,"CCS2, Type 2",56 ม.3 ถ.พังงาทับปุด ต.ถ้ำน้ำผุด อ.เมืองพังงา พังงา 82000,พังงา,8.431313,98.51931,#icon-ci-1-labelson,C:\Users\Lenovo\Downloads\DC EV Charging Station Thailand - Piyamate Wisanuvej.kmz
ปตท บจ.วี คอร์ป,PTT V Corp,PTT,EV Station PluZ,"CCS2, Type 2",9/1 ถ.บ้านในหวัง ต.ปากแพรก อ.ทุ่งสง นครศรีธรรมราช 80110,นครศรีธรรมราช,8.155014,99.69587,#icon-ci-1-labelson,C:\Users\Lenovo\Downloads\DC EV Charging Station Thailand - Piyamate Wisanuvej.kmz
ปตท ศรีนครินทร์ บางเมือง,PTT Srinakarin - Bang Mueang,PTT,EV Station PluZ,"CCS2, Type 2",299/9  ม.5 ถ.ศรีนครินทร์ ต.บางเมือง อ.เมืองสมุทรปราการ สมุทรปราการ 10270,สมุทรปราการ,13.61549,100.6214,#icon-ci-1-labelson,C:\Users\Lenovo\Downloads\DC EV Charging Station Thailand - Piyamate Wisanuvej.kmz
ปตท กะทู้ 2,PTT Kathu 2,PTT,EV Station PluZ,CCS2,2/125  ม.2 ต.กะทู้ อ.กะทู้ ภูเก็ต 83120,ภูเก็ต,7.911796,98.3424,#icon-ci-1-labelson,C:\Users\Lenovo\Downloads\DC EV Charging Station Thailand - Piyamate Wisanuvej.kmz
ปตท สนามบินหาดใหญ่,PTT Hat Yai International Airport,PTT,EV Station PluZ,"CCS2, Type 2",929 ม.1 ถ.สนามบิน-ลพบริราเมศวร์ ต.ควนลัง อ.หาดใหญ่ สงขลา 90110,สงขลา,6.973203,100.4291,#icon-ci-1-labelson,C:\Users\Lenovo\Downloads\DC EV Charging Station Thailand - Piyamate Wisanuvej.kmz
ปตท หจก.วันสิริ เซอร์วิส (ซีโอดีโอ),PTT Wansiri Service,PTT,EV Station PluZ,CCS2,403/1  ถ.พหลโยธิน ต.แม่ต๋ำ อ.เมืองพะเยา พะเยา 56000,พะเยา,19.14558,99.9122,#icon-ci-1-labelson,C:\Users\Lenovo\Downloads\DC EV Charging Station Thailand - Piyamate Wisanuvej.kmz
ปตท ไพรบึง-โชคชัย,PTT Phrai Bueng - Chokchai,PTT,EV Station PluZ,"CCS2, Type 2",189 ม.5 ต.สำโรงพลัน อ.ไพรบึง ศรีสะเกษ 33180,ศรีสะเกษ,14.684047,104.35703,#icon-ci-1-labelson,C:\Users\Lenovo\Downloads\DC EV Charging Station Thailand - Piyamate Wisanuvej.kmz
ปตท หจก.เค.ที.ทุ่งคาปิโตรเลียม,PTT K.T.Thungka Petroleum,PTT,EV Station PluZ,"CCS2, Type 2",68 ม.6 ถ.สายเอเชีย ต.ทุ่งคา อ.เมืองชุมพร ชุมพร 86100,ชุมพร,10.42233,99.13082,#icon-ci-1-labelson,C:\Users\Lenovo\Downloads\DC EV Charging Station Thailand - Piyamate Wisanuvej.kmz
ปตท หจก.น้ำมันสยามด่านขุนทด,PTT Siam Dankhuntod Oil,PTT,EV Station PluZ,"CCS2, Type 2",459 ม.2 ถ.สีคิ้ว-ชัยภูมิ ต.ด่านขุนทด อ.ด่านขุนทด นครราชสีมา 30210,นครราชสีมา,15.19828,101.7636,#icon-ci-1-labelson,C:\Users\Lenovo\Downloads\DC EV Charging Station Thailand - Piyamate Wisanuvej.kmz
ปตท สำนักงานปลัดกระทรวงกลาโหม(บางนาขาออก),PTT Office of The Permanent Secretary for Defence (Bangna-Out),PTT,EV Station PluZ,"CCS2, Type 2",82 ซ.สุขุมวิท 64 แขวงพระโขนงใต้ เขตพระโขนง กรุงเทพมหานคร 10260,กรุงเทพมหานคร,13.68643,100.6031,#icon-ci-1-labelson,C:\Users\Lenovo\Downloads\DC EV Charging Station Thailand - Piyamate Wisanuvej.kmz
ปตท สวัสดิการสำนักงานปลัดกระทรวงกลาโหม(บางนาขาเข้า),PTT Office of The Permanent Secretary for Defence (Bangna-In),PTT,EV Station PluZ,"CCS2, Type 2",104 ซ.สุขุมวิท 64 แยก 10 แขวงพระโขนงใต้ เขตพระโขนง กรุงเทพมหานคร 10260,กรุงเทพมหานคร,13.686238,100.601704,#icon-ci-1-labelson,C:\Users\Lenovo\Downloads\DC EV Charging Station Thailand - Piyamate Wisanuvej.kmz
ปตท บางนา-ตราด กม.16,PTT Bangna-Trat Km. 16,PTT,EV Station PluZ,"CCS2, Type 2",20/38  ม.7 ต.บางโฉลง อ.บางพลี สมุทรปราการ 10540,สมุทรปราการ,13.6171,100.7475,#icon-ci-1-labelson,C:\Users\Lenovo\Downloads\DC EV Charging Station Thailand - Piyamate Wisanuvej.kmz
ปตท สรรพาวุธ-บางนา,PTT Sanphawut-Bangna,PTT,EV Station PluZ,"CCS2, Type 2",500/4  ถ.สรรพาวุธ แขวงบางนาเหนือ เขตบางนา กรุงเทพมหานคร 10260,กรุงเทพมหานคร,13.675666,100.595021,#icon-ci-1-labelson,C:\Users\Lenovo\Downloads\DC EV Charging Station Thailand - Piyamate Wisanuvej.kmz
ปตท สามย่าน,PTT Samyan,PTT,EV Station PluZ,CCS2,1323 ถ.พระราม 4 แขวงวังใหม่ เขตปทุมวัน กรุงเทพมหานคร 10330,กรุงเทพมหานคร,13.7346,100.5249,#icon-ci-1-labelson,C:\Users\Lenovo\Downloads\DC EV Charging Station Thailand - Piyamate Wisanuvej.kmz
ปตท สนามบินภูเก็ต,PTT Phuket International Airport,PTT,EV Station PluZ,CCS2,113/12  ม.1 ต.สาคู อ.ถลาง ภูเก็ต 83110,ภูเก็ต,8.094767,98.308582,#icon-ci-1-labelson,C:\Users\Lenovo\Downloads\DC EV Charging Station Thailand - Piyamate Wisanuvej.kmz
ปตท บจ.สงวนสิน เอ็นเนอร์ยี่,PTT Sanguansin Energy,PTT,EV Station PluZ,"CCS2, Type 2",61/11  ม.9 ต.เขาวัว อ.ท่าใหม่ จันทบุรี 22120,จันทบุรี,12.65887,102.0614,#icon-ci-1-labelson,C:\Users\Lenovo\Downloads\DC EV Charging Station Thailand - Piyamate Wisanuvej.kmz
ปตท บจ.ไพรม์ไฮท์เพอร์ตี้,PTT Prime Heightperty,PTT,EV Station PluZ,CCS2,63 ม.7 ต.พันท้ายนรสิงห์ อ.เมืองสมุทรสาคร สมุทรสาคร 74000,สมุทรสาคร,13.5767836429,100.3457290668,#icon-ci-1-labelson,C:\Users\Lenovo\Downloads\DC EV Charging Station Thailand - Piyamate Wisanuvej.kmz
ปตท บจ.เติมเต็มปิโตรเลียม,PTT Term Tem Petroleum,PTT,EV Station PluZ,CCS2,174 ม.2 ต.วังกระแจะ อ.เมืองตราด ตราด 23000,ตราด,12.26314,102.5019,#icon-ci-1-labelson,C:\Users\Lenovo\Downloads\DC EV Charging Station Thailand - Piyamate Wisanuvej.kmz
ปตท แอลพีจี ออโต้  บจ.ชยาภิวัฒน์,LPG Auto Station Chayapiwat,PTT,EV Station PluZ,"CCS2, Type 2",42 ม.8 ต.หนองรี อ.เมืองชลบุรี ชลบุรี 20000,ชลบุรี,13.34037,101.052,#icon-ci-1-labelson,C:\Users\Lenovo\Downloads\DC EV Charging Station Thailand - Piyamate Wisanuvej.kmz
รีคอล อีส้าน อีสาน คอนเซ็ปท์ แอท เขาใหญ่,Recall Isaan Isan Concept at Khaoyai,PTT,EV Station PluZ,"CCS2, Type 2",54 ม.17 ต.หมูสี อ.ปากช่อง นครราชสีมา 30130,นครราชสีมา,14.5135,101.3756,#icon-ci-1-labelson,C:\Users\Lenovo\Downloads\DC EV Charging Station Thailand - Piyamate Wisanuvej.kmz
ปตท บจ.เจียง-อัศวรรณ หนองคาย (สุวรรณภูมิ),PTT Jiang-Asawan Nongkhai (Suvarnabhumi),PTT,EV Station PluZ,CCS2,608 ถ.หลวงแพ่ง แขวงทับยาว เขตลาดกระบัง กรุงเทพมหานคร 10520,กรุงเทพมหานคร,13.72067,100.7926,#icon-ci-1-labelson,C:\Users\Lenovo\Downloads\DC EV Charging Station Thailand - Piyamate Wisanuvej.kmz
อาคารสยามสเคป,Siam Scape Building,PTT,EV Station PluZ,"CCS2, Type 2",215 ถ.พญาไท แขวงปทุมวัน เขตปทุมวัน กรุงเทพมหานคร 10330,กรุงเทพมหานคร,13.74555,100.531,#icon-ci-1-labelson,C:\Users\Lenovo\Downloads\DC EV Charging Station Thailand - Piyamate Wisanuvej.kmz
ปตท หจก.คำเขื่อนแก้วปิโตรเลียม,PTT Kamkhuankaewpetrolem,PTT,EV Station PluZ,CCS2,1028 ม.2 ถ.แจ้งสนิท ต.ลุมพุก อ.คำเขื่อนแก้ว ยโสธร 35110,ยโสธร,15.647146,104.320629,#icon-ci-1-labelson,C:\Users\Lenovo\Downloads\DC EV Charging Station Thailand - Piyamate Wisanuvej.kmz
ปตท หจก.เรืองชัยบริการ,PTT Ruengchai Service,PTT,EV Station PluZ,CCS2,128 ม.2 ถ.ศรีโกสุม ต.หัวขวาง อ.โกสุมพิสัย มหาสารคาม 44140,มหาสารคาม,16.242084,103.068449,#icon-ci-1-labelson,C:\Users\Lenovo\Downloads\DC EV Charging Station Thailand - Piyamate Wisanuvej.kmz
อาคารวิทยกิตย์,Wittayakit Building,PTT,EV Station PluZ,"CCS2, Type 2",215 ซ.จุฬาลงกรณ์ ซ.64 ถ.พญาไท แขวงปทุมวัน เขตปทุมวัน กรุงเทพมหานคร 10330,กรุงเทพมหานคร,13.74401,100.5331,#icon-ci-1-labelson,C:\Users\Lenovo\Downloads\DC EV Charging Station Thailand - Piyamate Wisanuvej.kmz
ปตท หจก.สว่างวัฒนะมาลัยแมน,PTT Sawangwattana Malaiman,PTT,EV Station PluZ,"CCS2, Type 2",1 ม.21 ถ.มาลัยแมน ต.สระสี่มุม อ.กำแพงแสน นครปฐม 73140,นครปฐม,14.06507,99.98928,#icon-ci-1-labelson,C:\Users\Lenovo\Downloads\DC EV Charging Station Thailand - Piyamate Wisanuvej.kmz
ปตท บจ.เอ.บี.ปิโตรเลียม (บ้านยาง),PTT A.B. Petroleum (Ban Yang),PTT,EV Station PluZ,"CCS2, Type 2",257 ม.17 ถ.บุรีรัมย์-สตึก ต.บ้านยาง อ.เมืองบุรีรัมย์ บุรีรัมย์ 31000,บุรีรัมย์,15.02268,103.1432,#icon-ci-1-labelson,C:\Users\Lenovo\Downloads\DC EV Charging Station Thailand - Piyamate Wisanuvej.kmz
โรงพยาบาลเปาโล เกษตร,Paolo Kaset Hospital,PTT,EV Station PluZ,CCS2,2012/5-6 ถ.พหลโยธิน แขวงเสนานิคม เขตจตุจักร กรุงเทพมหานคร 10900,กรุงเทพมหานคร,13.83548,100.5742,#icon-ci-1-labelson,C:\Users\Lenovo\Downloads\DC EV Charging Station Thailand - Piyamate Wisanuvej.kmz
เจ เจ มอลล์,JJ Mall,PTT,EV Station PluZ,"CCS2, Type 2",588 ถ.กำแพงเพชร2 แขวงจตุจักร เขตจตุจักร กรุงเทพมหานคร 10900,กรุงเทพมหานคร,13.80205,100.549,#icon-ci-1-labelson,C:\Users\Lenovo\Downloads\DC EV Charging Station Thailand - Piyamate Wisanuvej.kmz
เดอะ พรอมานาด (ชั้น 1),The Promenade (1st Floor),PTT,EV Station PluZ,"CCS2, Type 2","587,589, 589/7-9 ถ.รามอินทรา แขวงคันนายาว เขตคันนายาว กรุงเทพมหานคร 10230",กรุงเทพมหานคร,13.826766,100.677135,#icon-ci-1-labelson,C:\Users\Lenovo\Downloads\DC EV Charging Station Thailand - Piyamate Wisanuvej.kmz
แฟชั่นไอส์แลนด์ ดี (ชั้น 1),Fashion Island D (1st Floor),PTT,EV Station PluZ,"CCS2, Type 2","587,589, 589/7-9 ถ.รามอินทรา แขวงคันนายาว เขตคันนายาว กรุงเทพมหานคร 10230",กรุงเทพมหานคร,13.826046,100.679895,#icon-ci-1-labelson,C:\Users\Lenovo\Downloads\DC EV Charging Station Thailand - Piyamate Wisanuvej.kmz
ปตท แอลพีจี ออโต้  บจ.เลิศราชพฤกษ์,LPG Auto Station Lertratchapruek,PTT,EV Station PluZ,"CCS2, Type 2",75/5 ต.บางพลับ อ.ปากเกร็ด นนทบุรี 11120,นนทบุรี,13.92871,100.4434,#icon-ci-1-labelson,C:\Users\Lenovo\Downloads\DC EV Charging Station Thailand - Piyamate Wisanuvej.kmz
เทอร์มินอล 21 โคราช,Terminal 21 Korat,PTT,EV Station PluZ,"CCS2, Type 2",99 ถ.มิตรภาพ ต.ในเมือง อ.เมืองนครราชสีมา นครราชสีมา 30000,นครราชสีมา,14.98156,102.0882,#icon-ci-1-labelson,C:\Users\Lenovo\Downloads\DC EV Charging Station Thailand - Piyamate Wisanuvej.kmz
ปตท หจก.เลิศสวัสดิ์ปิโตรเลียม,PTT Lertsawat Petroleum,PTT,EV Station PluZ,CCS2,9/2-3 ม.12 ต.ลาดบัวขาว อ.สีคิ้ว นครราชสีมา 30340,นครราชสีมา,14.8413842878,101.6097282937,#icon-ci-1-labelson,C:\Users\Lenovo\Downloads\DC EV Charging Station Thailand - Piyamate Wisanuvej.kmz
คาเฟ่ อเมซอน เขาย้อย จ.เพชรบุรี,"Café Amazon Khao Yoi, Phetchaburi",PTT,EV Station PluZ,"CCS2, Type 2",4/4 ม.5 ถ.เพชรเกษม ต.เขาย้อย อ.เขาย้อย เพชรบุรี 76140,เพชรบุรี,13.233494,99.824283,#icon-ci-1-labelson,C:\Users\Lenovo\Downloads\DC EV Charging Station Thailand - Piyamate Wisanuvej.kmz
แกรนด์ เซ็นเตอร์พอยต์ สเปซ พัทยา,Grande Centre Point Space Pattaya,PTT,EV Station PluZ,"CCS2, Type 2",888 ม.5 ต.นาเกลือ อ.บางละมุง ชลบุรี 20150,ชลบุรี,12.95331,100.8883,#icon-ci-1-labelson,C:\Users\Lenovo\Downloads\DC EV Charging Station Thailand - Piyamate Wisanuvej.kmz
ปตท บจ.รุ่งเรืองชัย 2014,PTT Rung Ruangchai 2014,PTT,EV Station PluZ,"CCS2, Type 2",278 ม.7 ต.สลักได อ.เมืองสุรินทร์ สุรินทร์ 32000,สุรินทร์,14.87814,103.5432,#icon-ci-1-labelson,C:\Users\Lenovo\Downloads\DC EV Charging Station Thailand - Piyamate Wisanuvej.kmz
ปตท บจ.สินชัยกาญจน์ปิโตรเลียม,PTT Sinchaikan Petroleum,PTT,EV Station PluZ,"CCS2, Type 2",276/1  ม.10 ต.ระแงง อ.ศีขรภูมิ สุรินทร์ 32110,สุรินทร์,14.93896,103.789,#icon-ci-1-labelson,C:\Users\Lenovo\Downloads\DC EV Charging Station Thailand - Piyamate Wisanuvej.kmz
คาเฟ่ อเมซอน แพลนเน็ตคอม รามอินทรา 34,Café Amazon Planet Comm Ramintra 34,PTT,EV Station PluZ,"CCS2, Type 2",157 ซ.รามอินทรา 34 แขวงท่าแร้ง เขตบางเขน กรุงเทพมหานคร 10230,กรุงเทพมหานคร,13.84483,100.633,#icon-ci-1-labelson,C:\Users\Lenovo\Downloads\DC EV Charging Station Thailand - Piyamate Wisanuvej.kmz
ปตท บจ.สุรินทร์ พาวเวอร์พอยท์,PTT Surin Power Point,PTT,EV Station PluZ,"CCS2, Type 2",244 ม.8 ต.แกใหญ่ อ.เมืองสุรินทร์ สุรินทร์ 32000,สุรินทร์,14.926421,103.51524,#icon-ci-1-labelson,C:\Users\Lenovo\Downloads\DC EV Charging Station Thailand - Piyamate Wisanuvej.kmz
ปตท บจ.มีโชคเพาเวอร์ พลัส,PTT Meechok Power Plus,PTT,EV Station PluZ,"CCS2, Type 2",1868 ม.1 ต.หัวทะเล อ.เมืองนครราชสีมา นครราชสีมา 30000,นครราชสีมา,14.95059,102.1236,#icon-ci-1-labelson,C:\Users\Lenovo\Downloads\DC EV Charging Station Thailand - Piyamate Wisanuvej.kmz
ปตท บจ.เอ.บี.ปิโตรเลียม,PTT A.B. Petroleum,PTT,EV Station PluZ,"CCS2, Type 2",401 ม.10 ถ.สายบุรีรัมย์-นางรอง ต.อิสาณ อ.เมืองบุรีรัมย์ บุรีรัมย์ 31000,บุรีรัมย์,14.97474,103.0688,#icon-ci-1-labelson,C:\Users\Lenovo\Downloads\DC EV Charging Station Thailand - Piyamate Wisanuvej.kmz
โอ.อาร์ อคาเดมี่,OR Academy,PTT,EV Station PluZ,"CCS2, Type 2",99/9  ม.6 ต.สนับทึบ อ.วังน้อย พระนครศรีอยุธยา 13170,พระนครศรีอยุธยา,14.29412082,100.8073381,#icon-ci-1-labelson,C:\Users\Lenovo\Downloads\DC EV Charging Station Thailand - Piyamate Wisanuvej.kmz
ปตท บจ.ยุทธกิจ ปิโตรเลียม,PTT Yuttakit Petroleum,PTT,EV Station PluZ,"CCS2, Type 2",551 ม.5 ต.ปากพูน อ.เมืองนครศรีธรรมราช นครศรีธรรมราช 80000,นครศรีธรรมราช,8.476854,99.963,#icon-ci-1-labelson,C:\Users\Lenovo\Downloads\DC EV Charging Station Thailand - Piyamate Wisanuvej.kmz
ปตท บจ.พงษ์กิต (2) (หัวทะเล),PTT Pongkit (2) (Hua Talay),PTT,EV Station PluZ,"CCS2, Type 2",133 ม.1 ถ.ราชสีมา-โชคชัย ต.หนองบัวศาลา อ.เมืองนครราชสีมา นครราชสีมา 30000,นครราชสีมา,14.9390950888,102.1335166336,#icon-ci-1-labelson,C:\Users\Lenovo\Downloads\DC EV Charging Station Thailand - Piyamate Wisanuvej.kmz
ปตท เมืองนครสวรรค์,PTT Mueang Nakhon Sawan,PTT,EV Station PluZ,CCS2,1/86 ถ.สวรรค์วิถี ต.ปากน้ำโพ อ.เมืองนครสวรรค์ นครสวรรค์ 60000,นครสวรรค์,15.70806,100.1428,#icon-ci-1-labelson,C:\Users\Lenovo\Downloads\DC EV Charging Station Thailand - Piyamate Wisanuvej.kmz
ปตท แอลพีจี ออโต้  บจ.สยามทรัพย์สมบูรณ์ ปิโตรเลียม,LPG Auto Station Siam Subsomboon Petroleum,PTT,EV Station PluZ,"CCS2, Type 2",119 ม.1 ถ.พหลโยธิน ต.ลำไทร อ.วังน้อย พระนครศรีอยุธยา 13170,พระนครศรีอยุธยา,14.18565,100.6268,#icon-ci-1-labelson,C:\Users\Lenovo\Downloads\DC EV Charging Station Thailand - Piyamate Wisanuvej.kmz
ปตท แอลพีจี ออโต้  บจ.ศิริอยุธยา,LPG Auto Station Siri Ayutthaya,PTT,EV Station PluZ,"CCS2, Type 2",151 ม.2 ต.บ้านเกาะ อ.พระนครศรีอยุธยา พระนครศรีอยุธยา 13000,พระนครศรีอยุธยา,14.39154,100.5971,#icon-ci-1-labelson,C:\Users\Lenovo\Downloads\DC EV Charging Station Thailand - Piyamate Wisanuvej.kmz
ปตท แอลพีจี ออโต้  หจก.สารคามออโต้แก๊ส,LPG Auto Station Sarakham Auto Gas,PTT,EV Station PluZ,"CCS2, Type 2",61 ม.9 ถ.สารคาม-กาฬสินธุ์ ต.ท่าขอนยาง อ.กันทรวิชัย มหาสารคาม 44150,มหาสารคาม,16.26066,103.2809,#icon-ci-1-labelson,C:\Users\Lenovo\Downloads\DC EV Charging Station Thailand - Piyamate Wisanuvej.kmz
ปตท บจ.ก.กิจบายพาส,PTT K. Kit Bypass,PTT,EV Station PluZ,CCS2,14/26  ม.3 ถ.เลี่ยงเมือง ต.มะขามเตี้ย อ.เมืองสุราษฎร์ธานี สุราษฎร์ธานี 84000,สุราษฎร์ธานี,9.102672,99.31494,#icon-ci-1-labelson,C:\Users\Lenovo\Downloads\DC EV Charging Station Thailand - Piyamate Wisanuvej.kmz
ปตท เอ็นจีวี . ไวท์ พาวเวอร์,PTT NGV Station White Power,PTT,EV Station PluZ,CCS2,23 ซ.พหลโยธิน 96 ต.ประชาธิปัตย์ อ.ธัญบุรี ปทุมธานี 12130,ปทุมธานี,13.99835,100.6169,#icon-ci-1-labelson,C:\Users\Lenovo\Downloads\DC EV Charging Station Thailand - Piyamate Wisanuvej.kmz
ปตท บจ.สุรชัยอำนาจปิโตรเลียม,PTT Surachai Amnat Petroleum,PTT,EV Station PluZ,"CCS2, Type 2",15 ม.9 ถ.ชยางกูร ต.โนนหนามแท่ง อ.เมืองอำนาจเจริญ อำนาจเจริญ 37000,อำนาจเจริญ,15.90495,104.6264,#icon-ci-1-labelson,C:\Users\Lenovo\Downloads\DC EV Charging Station Thailand - Piyamate Wisanuvej.kmz
ปตท หจก.ที.วี.เอส.ออยล์,PTT T.V.S. Oil,PTT,EV Station PluZ,"CCS2, Type 2",239 ม.7 ต.หนองไผ่ อ.เมืองศรีสะเกษ ศรีสะเกษ 33000,ศรีสะเกษ,15.13229,104.271478,#icon-ci-1-labelson,C:\Users\Lenovo\Downloads\DC EV Charging Station Thailand - Piyamate Wisanuvej.kmz
ปตท บจ.อุบล เกตเวย์,PTT Ubon Gateway,PTT,EV Station PluZ,"CCS2, Type 2",240/9  ม.4 ถ.ชยางกูร ต.ขามใหญ่ อ.เมืองอุบลราชธานี อุบลราชธานี 34000,อุบลราชธานี,15.2936,104.8374,#icon-ci-1-labelson,C:\Users\Lenovo\Downloads\DC EV Charging Station Thailand - Piyamate Wisanuvej.kmz
ปตท หจก.ศรีสมวงศ์เซอร์วิส ชัยภูมิ,PTT Srisomwong Service Chaiyaphum,PTT,EV Station PluZ,CCS2,234 ม.8 ถ.ชัยภูมิ-สีคิ้ว ต.หนองนาแซง อ.เมืองชัยภูมิ ชัยภูมิ 36000,ชัยภูมิ,15.77745,102.0251,#icon-ci-1-labelson,C:\Users\Lenovo\Downloads\DC EV Charging Station Thailand - Piyamate Wisanuvej.kmz
ปตท ปากช่อง,PTT Pak Chong,PTT,EV Station PluZ,"CCS2, Type 2",496 ม.5 ต.กลางดง อ.ปากช่อง นครราชสีมา 30320,นครราชสีมา,14.655,101.3173,#icon-ci-1-labelson,C:\Users\Lenovo\Downloads\DC EV Charging Station Thailand - Piyamate Wisanuvej.kmz
ปตท บจ.พงษ์กิต (เทคโน),PTT Pongkit (Techno),PTT,EV Station PluZ,"CCS2, Type 2",1089 ถ.สุรนารายณ์ ต.ในเมือง อ.เมืองนครราชสีมา นครราชสีมา 30000,นครราชสีมา,14.9895,102.117,#icon-ci-1-labelson,C:\Users\Lenovo\Downloads\DC EV Charging Station Thailand - Piyamate Wisanuvej.kmz
ปตท บจ.อาทิตย์ ไฮเวย์,PTT Arthit Highway,PTT,EV Station PluZ,CCS2,331 ม.1 ต.ปรุใหญ่ อ.เมืองนครราชสีมา นครราชสีมา 30000,นครราชสีมา,14.99019,102.0538,#icon-ci-1-labelson,C:\Users\Lenovo\Downloads\DC EV Charging Station Thailand - Piyamate Wisanuvej.kmz
ปตท บจ.ธนพล เอ็นเนอจี,PTT Thanaphon Energy,PTT,EV Station PluZ,"CCS2, Type 2",1202 ถ.มิตรภาพ ต.ในเมือง อ.เมืองนครราชสีมา นครราชสีมา 30000,นครราชสีมา,14.97985,102.0814,#icon-ci-1-labelson,C:\Users\Lenovo\Downloads\DC EV Charging Station Thailand - Piyamate Wisanuvej.kmz
ปตท บจ.มุ่งปั้นดี,PTT Mung Pan Dee,PTT,EV Station PluZ,"CCS2, Type 2",111 ม.6 ถ.สาย 304 ต.ไทยสามัคคี อ.วังน้ำเขียว นครราชสีมา 30370,นครราชสีมา,14.371933,101.863677,#icon-ci-1-labelson,C:\Users\Lenovo\Downloads\DC EV Charging Station Thailand - Piyamate Wisanuvej.kmz
ปตท เอ็นจีวี . เอ็น.จี.วี. กม.5,PTT NGV Station NGV Km.5,PTT,EV Station PluZ,CCS2,77/1  ม.3 แขวงแสนแสบ เขตมีนบุรี กรุงเทพมหานคร 10510,กรุงเทพมหานคร,13.81458,100.7618,#icon-ci-1-labelson,C:\Users\Lenovo\Downloads\DC EV Charging Station Thailand - Piyamate Wisanuvej.kmz
ปตท บจ.เขาใหญ่,PTT Khao Yai Station,PTT,EV Station PluZ,"CCS2, Type 2",95 ม.6 ต.หนองน้ำแดง อ.ปากช่อง นครราชสีมา 30130,นครราชสีมา,14.6113,101.4041,#icon-ci-1-labelson,C:\Users\Lenovo\Downloads\DC EV Charging Station Thailand - Piyamate Wisanuvej.kmz
ปตท เอ็นจีวี . ช.สามเศียร,PTT NGV Station Chor Sam Sien,PTT,EV Station PluZ,CCS2,444/4  ถ.เพชรเกษม แขวงบางหว้า เขตภาษีเจริญ กรุงเทพมหานคร 10160,กรุงเทพมหานคร,13.71426,100.4408,#icon-ci-1-labelson,C:\Users\Lenovo\Downloads\DC EV Charging Station Thailand - Piyamate Wisanuvej.kmz
ปตท บจ.เค ซี ยโสธร,PTT KC Yasothon,PTT,EV Station PluZ,"CCS2, Type 2",225 ม.1 ต.สำราญ อ.เมืองยโสธร ยโสธร 35000,ยโสธร,15.81551,104.1285,#icon-ci-1-labelson,C:\Users\Lenovo\Downloads\DC EV Charging Station Thailand - Piyamate Wisanuvej.kmz
ปตท เอ็นจีวี . สิริเจริญวัฒนา,PTT NGV Station Siri Charoen Wattana,PTT,EV Station PluZ,CCS2,86 ม.8 แขวงฉิมพลี เขตตลิ่งชัน กรุงเทพมหานคร 10170,กรุงเทพมหานคร,13.781,100.424,#icon-ci-1-labelson,C:\Users\Lenovo\Downloads\DC EV Charging Station Thailand - Piyamate Wisanuvej.kmz
ปตท เอ็นจีวี . เอเชียมีนบุรี,PTT NGV Station Asia Minburi,PTT,EV Station PluZ,CCS2,78/2  ถ.รามคำแหง แขวงมีนบุรี เขตมีนบุรี กรุงเทพมหานคร 10510,กรุงเทพมหานคร,13.801736,100.721557,#icon-ci-1-labelson,C:\Users\Lenovo\Downloads\DC EV Charging Station Thailand - Piyamate Wisanuvej.kmz
ปตท แอลพีจี ออโต้  หจก.เกษมจันทบุรี แอล พี จี,LPG Auto Station Kasem Chanthaburi LPG,PTT,EV Station PluZ,"CCS2, Type 2",90/200  ม.2 ต.ท่าช้าง อ.เมืองจันทบุรี จันทบุรี 22000,จันทบุรี,12.66582,102.0911,#icon-ci-1-labelson,C:\Users\Lenovo\Downloads\DC EV Charging Station Thailand - Piyamate Wisanuvej.kmz
ปตท แอลพีจี ออโต้  หจก.ก.เกษมแก๊ส 3,LPG Auto Station K. Kasem Gas 3,PTT,EV Station PluZ,"CCS2, Type 2",15 ม.12 ถ.สุขุมวิท  ต.พลิ้ว อ.แหลมสิงห์ จันทบุรี 22190,จันทบุรี,12.5197146025,102.1659850972,#icon-ci-1-labelson,C:\Users\Lenovo\Downloads\DC EV Charging Station Thailand - Piyamate Wisanuvej.kmz
ปตท แอลพีจี ออโต้  หจก.ละแมปิยะกรุ๊ป (เมือง),"LPG Auto Station Lamaepiya Group (Mueang) Part., Ltd",PTT,EV Station PluZ,"CCS2, Type 2",60/1-2  ม.1 ต.บ้านนา อ.เมืองชุมพร ชุมพร 86190,ชุมพร,10.50161,99.11946,#icon-ci-1-labelson,C:\Users\Lenovo\Downloads\DC EV Charging Station Thailand - Piyamate Wisanuvej.kmz
ปตท หจก.เลี่ยงเมืองอุบลบริการ,PTT Bypass Ubon Service,PTT,EV Station PluZ,"CCS2, Type 2",181 ม.7 ถ.เลี่ยงเมือง ต.แจระแม อ.เมืองอุบลราชธานี อุบลราชธานี 34000,อุบลราชธานี,15.2227,104.8192,#icon-ci-1-labelson,C:\Users\Lenovo\Downloads\DC EV Charging Station Thailand - Piyamate Wisanuvej.kmz
ปตท อาร์เอ็ม ทล.201 กม.118 ขาเข้า,PTT RM HW. 201 km. 118 (IB),PTT,EV Station PluZ,CCS2,456 ม.1 ต.หนองนาแซง อ.เมืองชัยภูมิ ชัยภูมิ 36000,ชัยภูมิ,15.77217,102.0263,#icon-ci-1-labelson,C:\Users\Lenovo\Downloads\DC EV Charging Station Thailand - Piyamate Wisanuvej.kmz
ปตท บจ.ปิโตรเลียมน้ำมัน (อุบล),PTT Petroleum Oil (Ubon),PTT,EV Station PluZ,"CCS2, Type 2",284/1 ม.8 ม.8 ต.แสนสุข อ.วารินชำราบ อุบลราชธานี 34190,อุบลราชธานี,15.16242,104.8554,#icon-ci-1-labelson,C:\Users\Lenovo\Downloads\DC EV Charging Station Thailand - Piyamate Wisanuvej.kmz
ปตท หจก.ส.สุมาลี เอ็นเนอจี้,PTT S.Sumalee Energy,PTT,EV Station PluZ,"CCS2, Type 2",3 ม.2 ต.โนนผึ้ง อ.วารินชำราบ อุบลราชธานี 34190,อุบลราชธานี,15.18755,104.8155,#icon-ci-1-labelson,C:\Users\Lenovo\Downloads\DC EV Charging Station Thailand - Piyamate Wisanuvej.kmz
ปตท เอ็นจีวี . ภาวดี กาญจนาภิเษก,PTT NGV Station Phawadee Kanchanaphisek,PTT,EV Station PluZ,CCS2,214/3  ถ.กาญจนาภิเษก แขวงคลองบางพราน เขตบางบอน กรุงเทพมหานคร 10150,กรุงเทพมหานคร,13.67138,100.4067,#icon-ci-1-labelson,C:\Users\Lenovo\Downloads\DC EV Charging Station Thailand - Piyamate Wisanuvej.kmz
ปตท เอ็นจีวี . กนิษฐาพาณิชย์,PTT NGV Station Kanittha Panich,PTT,EV Station PluZ,CCS2,160/6  ม.2 ต.สวนใหญ่ อ.เมืองนนทบุรี นนทบุรี 11000,นนทบุรี,13.85034,100.4907,#icon-ci-1-labelson,C:\Users\Lenovo\Downloads\DC EV Charging Station Thailand - Piyamate Wisanuvej.kmz
ปตท บจ.น้ำมันสมุย,PTT Samui Oil,PTT,EV Station PluZ,CCS2,106/43 ม.1 ม.1 ต.บ่อผุด อ.เกาะสมุย สุราษฎร์ธานี 84320,สุราษฎร์ธานี,9.557846,100.0273,#icon-ci-1-labelson,C:\Users\Lenovo\Downloads\DC EV Charging Station Thailand - Piyamate Wisanuvej.kmz
ปตท เอ็นจีวี . หลักเมืองถาวร,PTT NGV Station Lakmuang Thavorn NGV,PTT,EV Station PluZ,CCS2,9 ม.11 ต.โคกคราม อ.บางปลาม้า สุพรรณบุรี 72150,สุพรรณบุรี,14.42813,100.1462,#icon-ci-1-labelson,C:\Users\Lenovo\Downloads\DC EV Charging Station Thailand - Piyamate Wisanuvej.kmz
ปตท บจ.เจ เค (2011),PTT JK (2011),PTT,EV Station PluZ,CCS2,999 ม.11 ต.นาอาน อ.เมืองเลย เลย 42000,เลย,17.46639,101.7255,#icon-ci-1-labelson,C:\Users\Lenovo\Downloads\DC EV Charging Station Thailand - Piyamate Wisanuvej.kmz
ปตท หจก.สาธิตและพิทยา,PTT Sathit and Pittaya,PTT,EV Station PluZ,"CCS2, Type 2",42/4  ม.3 ต.คึกคัก อ.ตะกั่วป่า พังงา 82190,พังงา,8.693934,98.25453,#icon-ci-1-labelson,C:\Users\Lenovo\Downloads\DC EV Charging Station Thailand - Piyamate Wisanuvej.kmz
ปตท บจ.เอ็น แอนด์ เอ ปิโตรเลี่ยม,PTT N&A Petroleum,PTT,EV Station PluZ,CCS2,100/9  ม.7 ต.ตะเคียนทอง อ.กาญจนดิษฐ์ สุราษฎร์ธานี 84160,สุราษฎร์ธานี,9.157871,99.43412,#icon-ci-1-labelson,C:\Users\Lenovo\Downloads\DC EV Charging Station Thailand - Piyamate Wisanuvej.kmz
ปตท หจก.เกรียงศักดิ์ยโสธรปิโตรเลียม,PTT Kriengsak Yasothon Petroleum,PTT,EV Station PluZ,"CCS2, Type 2",248 ม.1 ต.ตาดทอง อ.เมืองยโสธร ยโสธร 35000,ยโสธร,15.75573,104.2102,#icon-ci-1-labelson,C:\Users\Lenovo\Downloads\DC EV Charging Station Thailand - Piyamate Wisanuvej.kmz
ปตท น้ำพอง,PTT Nam Phong,PTT,EV Station PluZ,"CCS2, Type 2",16 ม.12 ต.ม่วงหวาน อ.น้ำพอง ขอนแก่น 40310,ขอนแก่น,16.67157,102.8049,#icon-ci-1-labelson,C:\Users\Lenovo\Downloads\DC EV Charging Station Thailand - Piyamate Wisanuvej.kmz
ปตท หจก.วาสนาปิโตรเลียม,PTT Wasana Petroleum,PTT,EV Station PluZ,"CCS2, Type 2",116 ม.2 ต.นาพรุ อ.พระพรหม นครศรีธรรมราช 80000,นครศรีธรรมราช,8.337851,99.92576,#icon-ci-1-labelson,C:\Users\Lenovo\Downloads\DC EV Charging Station Thailand - Piyamate Wisanuvej.kmz
ปตท หจก.เชียงใหม่สหชัยวัฒนา,PTT Chiang Mai Sahachai Wattana,PTT,EV Station PluZ,"CCS2, Type 2",157 ม.5 ต.สันนาเม็ง อ.สันทราย เชียงใหม่ 50210,เชียงใหม่,18.8337,99.05698,#icon-ci-1-labelson,C:\Users\Lenovo\Downloads\DC EV Charging Station Thailand - Piyamate Wisanuvej.kmz
ปตท บจ.ร่วมมิตรปิโตรเลียม,PTT Ruammit Petroleum,PTT,EV Station PluZ,"CCS2, Type 2",168 ม.2 ต.ป่าแดด อ.เมืองเชียงใหม่ เชียงใหม่ 50100,เชียงใหม่,18.76443,98.99155,#icon-ci-1-labelson,C:\Users\Lenovo\Downloads\DC EV Charging Station Thailand - Piyamate Wisanuvej.kmz
ปตท หจก.เมืองนางปิโตรเลียม,PTT Muangnang Petroleum,PTT,EV Station PluZ,"CCS2, Type 2",191 ม.2 ต.ลำภู อ.เมืองหนองบัวลำภู หนองบัวลำภู 39000,หนองบัวลำภู,17.21907,102.4229,#icon-ci-1-labelson,C:\Users\Lenovo\Downloads\DC EV Charging Station Thailand - Piyamate Wisanuvej.kmz
ปตท เชียงคาน,PTT Chiang Khan,PTT,EV Station PluZ,"CCS2, Type 2",11 ม.6 ต.เชียงคาน อ.เชียงคาน เลย 42110,เลย,17.87881,101.6556,#icon-ci-1-labelson,C:\Users\Lenovo\Downloads\DC EV Charging Station Thailand - Piyamate Wisanuvej.kmz
ปตท หจก.ธนันท์ตา ปิโตรเลียม,PTT Thanunta Petroleum,PTT,EV Station PluZ,"CCS2, Type 2",133/3  ม.1 ถ.ลำปาง-งาว ต.พิชัย อ.เมืองลำปาง ลำปาง 52000,ลำปาง,18.30365,99.52439,#icon-ci-1-labelson,C:\Users\Lenovo\Downloads\DC EV Charging Station Thailand - Piyamate Wisanuvej.kmz
ปตท หจก.นอร์ธเทิร์น เชียงใหม่ออยล์,PTT Northern Chiang Mai Oil,PTT,EV Station PluZ,CCS2,202 ม.4 ต.ท่าศาลา อ.เมืองเชียงใหม่ เชียงใหม่ 50000,เชียงใหม่,18.76951,99.02918,#icon-ci-1-labelson,C:\Users\Lenovo\Downloads\DC EV Charging Station Thailand - Piyamate Wisanuvej.kmz
ปตท เมืองหนองคาย,PTT Nong Khai,PTT,EV Station PluZ,"CCS2, Type 2",720/1  ม.9 ต.โพธิ์ชัย อ.เมืองหนองคาย หนองคาย 43000,หนองคาย,17.86014,102.7498,#icon-ci-1-labelson,C:\Users\Lenovo\Downloads\DC EV Charging Station Thailand - Piyamate Wisanuvej.kmz
ปตท หจก.พนมบริการ,PTT Phanom Service,PTT,EV Station PluZ,"CCS2, Type 2",35 ถ.นครพนม-ธาตุพนม ต.ในเมือง อ.เมืองนครพนม นครพนม 48000,นครพนม,17.37567,104.7939,#icon-ci-1-labelson,C:\Users\Lenovo\Downloads\DC EV Charging Station Thailand - Piyamate Wisanuvej.kmz
ปตท หจก.นพผดุงบริการ (1),PTT Nopbhadung Service (1),PTT,EV Station PluZ,"CCS2, Type 2",321 ถ.นิตโย ต.ในเมือง อ.เมืองนครพนม นครพนม 48000,นครพนม,17.3962,104.7814,#icon-ci-1-labelson,C:\Users\Lenovo\Downloads\DC EV Charging Station Thailand - Piyamate Wisanuvej.kmz
ปตท เอ็นจีวี . โปรเทคโนโลยี,PTT NGV Station Pro Technology,PTT,EV Station PluZ,CCS2,55/65  ม.1 ต.อ้อมเกร็ด อ.ปากเกร็ด นนทบุรี 11120,นนทบุรี,13.90325,100.45,#icon-ci-1-labelson,C:\Users\Lenovo\Downloads\DC EV Charging Station Thailand - Piyamate Wisanuvej.kmz
ปตท บจ.เจียง-อัศวรรณ หนองคาย,PTT Jiang-Asawan Nongkhai,PTT,EV Station PluZ,"CCS2, Type 2",129/6  ม.5 ต.หมากแข้ง อ.เมืองอุดรธานี อุดรธานี 41000,อุดรธานี,17.39081,102.771,#icon-ci-1-labelson,C:\Users\Lenovo\Downloads\DC EV Charging Station Thailand - Piyamate Wisanuvej.kmz
ปตท บจ.เจพีอีลีทออเงิน,PTT JP Elite Au-Ngern,PTT,EV Station PluZ,"CCS2, Type 2",42/94  ถ.สุขาภิบาล 5 แขวงออเงิน เขตสายไหม กรุงเทพมหานคร 10220,กรุงเทพมหานคร,13.89183,100.6585,#icon-ci-1-labelson,C:\Users\Lenovo\Downloads\DC EV Charging Station Thailand - Piyamate Wisanuvej.kmz
ปตท บจ.ซุปเปอร์โมเดล เอนเนอจี,PTT Super Model Energy,PTT,EV Station PluZ,CCS2,388 ถ.สายไหม แขวงสายไหม เขตสายไหม กรุงเทพมหานคร 10220,กรุงเทพมหานคร,13.92099,100.6604,#icon-ci-1-labelson,C:\Users\Lenovo\Downloads\DC EV Charging Station Thailand - Piyamate Wisanuvej.kmz
ปตท ยางตลาด,PTT Yang Talat,PTT,EV Station PluZ,"CCS2, Type 2",71 ม.5 ต.ยางตลาด อ.ยางตลาด กาฬสินธุ์ 46120,กาฬสินธุ์,16.40768,103.397,#icon-ci-1-labelson,C:\Users\Lenovo\Downloads\DC EV Charging Station Thailand - Piyamate Wisanuvej.kmz
ปตท มหาสารคาม,PTT Maha Sarakham,PTT,EV Station PluZ,"CCS2, Type 2",71/6  ถ.นครสวรรค์ ต.เกิ้ง อ.เมืองมหาสารคาม มหาสารคาม 44000,มหาสารคาม,16.203109,103.275284,#icon-ci-1-labelson,C:\Users\Lenovo\Downloads\DC EV Charging Station Thailand - Piyamate Wisanuvej.kmz
ปตท แอลพีจี ออโต้  บจ.มะลิวัลย์ แก๊ส,LPG Auto Station Maliwan Gas,PTT,EV Station PluZ,"CCS2, Type 2",298-298/1  ม.1 ถ.มะลิวัลย์  ต.บ้านเป็ด อ.เมืองขอนแก่น ขอนแก่น 40000,ขอนแก่น,16.44975,102.7581,#icon-ci-1-labelson,C:\Users\Lenovo\Downloads\DC EV Charging Station Thailand - Piyamate Wisanuvej.kmz
ท็อปส์ พลาซ่า หนองหาน,Tops Plaza Nong Han,PTT,EV Station PluZ,"CCS2, Type 2",109 ม.11 ต.หนองหาน อ.หนองหาน อุดรธานี 41130,อุดรธานี,17.3620228623,103.1136077405,#icon-ci-1-labelson,C:\Users\Lenovo\Downloads\DC EV Charging Station Thailand - Piyamate Wisanuvej.kmz
ท็อปส์ พลาซ่า พล,Tops Plaza Phon,PTT,EV Station PluZ,"CCS2, Type 2",6 ถ.มิตรภาพ ต.เมืองพล อ.พล ขอนแก่น 40120,ขอนแก่น,15.8075126541,102.6070210985,#icon-ci-1-labelson,C:\Users\Lenovo\Downloads\DC EV Charging Station Thailand - Piyamate Wisanuvej.kmz
ปตท บจ.ภาคเหนือชัยวัฒนา,PTT Phaknhua-Chaiwatthana,PTT,EV Station PluZ,"CCS2, Type 2",198 ม.8 ต.ห้างฉัตร อ.ห้างฉัตร ลำปาง 52190,ลำปาง,18.3185,99.35358,#icon-ci-1-labelson,C:\Users\Lenovo\Downloads\DC EV Charging Station Thailand - Piyamate Wisanuvej.kmz
ปตท บจ.จันทร์เพ็ญ .ศรีราชา,PTT Chanpen Sriracha,PTT,EV Station PluZ,"CCS2, Type 2",114/5 ม.4 ถ.ทางหลวงหมายเลข 331 ตอนเนินผาสุก ต.หนองขาม อ.ศรีราชา ชลบุรี 20110,ชลบุรี,13.1174208663,101.0514037872,#icon-ci-1-labelson,C:\Users\Lenovo\Downloads\DC EV Charging Station Thailand - Piyamate Wisanuvej.kmz
ปตท บจ.จันทร์เพ็ญแหลมฉบัง,PTT Chanphen Laem Chabang,PTT,EV Station PluZ,"CCS2, Type 2",144/11-13  ม.4 ต.หนองขาม อ.ศรีราชา ชลบุรี 20230,ชลบุรี,13.1151,101.0525,#icon-ci-1-labelson,C:\Users\Lenovo\Downloads\DC EV Charging Station Thailand - Piyamate Wisanuvej.kmz
ปตท หจก.ดีใจบริการ,PTT Deejai Service,PTT,EV Station PluZ,CCS2,47/57  ม.6 ต.บางพระ อ.ศรีราชา ชลบุรี 20110,ชลบุรี,13.2206,100.9623,#icon-ci-1-labelson,C:\Users\Lenovo\Downloads\DC EV Charging Station Thailand - Piyamate Wisanuvej.kmz
ปตท บจ.น้ำมันไทยเพิ่มพูล,PTT Oil Thaipermpool,PTT,EV Station PluZ,"CCS2, Type 2",210 ม.4 ต.เหนือเมือง อ.เมืองร้อยเอ็ด ร้อยเอ็ด 45000,ร้อยเอ็ด,16.06981,103.677,#icon-ci-1-labelson,C:\Users\Lenovo\Downloads\DC EV Charging Station Thailand - Piyamate Wisanuvej.kmz
ปตท บจ.วารินปิโตรเลียม (มุกดาหาร),PTT Warin Petroleum (Mukdahan),PTT,EV Station PluZ,"CCS2, Type 2",34 ถ.ชยางกูร ต.มุกดาหาร อ.เมืองมุกดาหาร มุกดาหาร 49000,มุกดาหาร,16.53358,104.6984,#icon-ci-1-labelson,C:\Users\Lenovo\Downloads\DC EV Charging Station Thailand - Piyamate Wisanuvej.kmz
โรบินสัน ไลฟ์สไตล์ สกลนคร,Robinson Lifestyle Sakon Nakhon,PTT,EV Station PluZ,"CCS2, Type 2",88/8  ถ.นิตโย  ต.ธาตุนาเวง อ.เมืองสกลนคร สกลนคร 47000,สกลนคร,17.17819,104.1196,#icon-ci-1-labelson,C:\Users\Lenovo\Downloads\DC EV Charging Station Thailand - Piyamate Wisanuvej.kmz
ปตท บจ.ดับเบิ้ล เอส ปิโตร เซอร์วิส,PTT Double S Petro Service,PTT,EV Station PluZ,"CCS2, Type 2",619 ม.1 ต.เขาคราม อ.เมืองกระบี่ กระบี่ 81000,กระบี่,8.224257,98.80753,#icon-ci-1-labelson,C:\Users\Lenovo\Downloads\DC EV Charging Station Thailand - Piyamate Wisanuvej.kmz
ปตท บจ.หนองคายจารุวงศ์บริการ,PTT Nongkhai Jaruvong Service,PTT,EV Station PluZ,"CCS2, Type 2",332 ม.9 ต.วิศิษฐ์ อ.เมืองบึงกาฬ บึงกาฬ 38000,บึงกาฬ,18.37483,103.6326,#icon-ci-1-labelson,C:\Users\Lenovo\Downloads\DC EV Charging Station Thailand - Piyamate Wisanuvej.kmz
ปตท บจ.เทพศิรินทร์,PTT Thepsirin,PTT,EV Station PluZ,"CCS2, Type 2",56/15  ม.4 ต.บางนอน อ.เมืองระนอง ระนอง 85000,ระนอง,9.97282,98.6449,#icon-ci-1-labelson,C:\Users\Lenovo\Downloads\DC EV Charging Station Thailand - Piyamate Wisanuvej.kmz
ปตท เอ็นจีวี . อิทธิศักดิ์,PTT NGV Station Ittisak,PTT,EV Station PluZ,CCS2,36/33 ม.3 ต.คูคต อ.ลำลูกกา ปทุมธานี 12130,ปทุมธานี,13.93191,100.6603,#icon-ci-1-labelson,C:\Users\Lenovo\Downloads\DC EV Charging Station Thailand - Piyamate Wisanuvej.kmz
ปตท หนองหอย,PTT Nong Hoy,PTT,EV Station PluZ,"CCS2, Type 2",537/9  ถ.เชียงใหม่-ลำพูน ต.หนองหอย อ.เมืองเชียงใหม่ เชียงใหม่ 50000,เชียงใหม่,18.76038,99.00676,#icon-ci-1-labelson,C:\Users\Lenovo\Downloads\DC EV Charging Station Thailand - Piyamate Wisanuvej.kmz
ปตท หจก.เชียงรายกิตติรัตน์,PTT Chiang Rai Kittirat,PTT,EV Station PluZ,"CCS2, Type 2",19 ม.1 ถ.เชียงราย-เชียงใหม่ ต.แม่เจดีย์ อ.เวียงป่าเป้า เชียงราย 57260,เชียงราย,19.193247,99.514321,#icon-ci-1-labelson,C:\Users\Lenovo\Downloads\DC EV Charging Station Thailand - Piyamate Wisanuvej.kmz
ปตท บจ.ส.เจริญกิจ เพิ่มสิน,PTT S. Charoenkit Permsin,PTT,EV Station PluZ,CCS2,29/12  ถ.เพิ่มสิน แขวงคลองถนน เขตสายไหม กรุงเทพมหานคร 10220,กรุงเทพมหานคร,13.9007,100.6412,#icon-ci-1-labelson,C:\Users\Lenovo\Downloads\DC EV Charging Station Thailand - Piyamate Wisanuvej.kmz
ปตท หจก.ศรีเจริญภัณฑ์,PTT Sri Charoenphan,PTT,EV Station PluZ,CCS2,1093 ถ.วิภาวดีรังสิต แขวงลาดยาว เขตจตุจักร กรุงเทพมหานคร 10900,กรุงเทพมหานคร,13.82537,100.5588,#icon-ci-1-labelson,C:\Users\Lenovo\Downloads\DC EV Charging Station Thailand - Piyamate Wisanuvej.kmz
ปตท บจ.สุขุมเซอร์วิส (แม่ริม),PTT Sukhum Service (Mae Rim),PTT,EV Station PluZ,"CCS2, Type 2",5/15 ม.7 ต.ริมใต้ อ.แม่ริม เชียงใหม่ 50180,เชียงใหม่,18.921642806,98.940921182,#icon-ci-1-labelson,C:\Users\Lenovo\Downloads\DC EV Charging Station Thailand - Piyamate Wisanuvej.kmz
ปตท บจ.ส.เจริญกิจ สุขาภิบาล 5,PTT S. Charoenkit Sukhaphiban 5,PTT,EV Station PluZ,CCS2,48 ถ.สุขาภิบาล 5 แขวงออเงิน เขตสายไหม กรุงเทพมหานคร 10220,กรุงเทพมหานคร,13.89461,100.6595,#icon-ci-1-labelson,C:\Users\Lenovo\Downloads\DC EV Charging Station Thailand - Piyamate Wisanuvej.kmz
ปตท หจก.แม่สรวยปิโตรเลียม,PTT Maesuai Petroleum,PTT,EV Station PluZ,"CCS2, Type 2",18 ม.7 ถ.เชียงราย-เชียงใหม่ ต.แม่สรวย อ.แม่สรวย เชียงราย 57180,เชียงราย,19.64762,99.53193,#icon-ci-1-labelson,C:\Users\Lenovo\Downloads\DC EV Charging Station Thailand - Piyamate Wisanuvej.kmz
โรบินสัน ไลฟ์สไตล์ สุพรรณบุรี,Robinson Lifestyle Suphanburi,PTT,EV Station PluZ,"CCS2, Type 2",449 ม.5 ต.ท่าระหัด อ.เมืองสุพรรณบุรี สุพรรณบุรี 72000,สุพรรณบุรี,14.45765,100.1285,#icon-ci-1-labelson,C:\Users\Lenovo\Downloads\DC EV Charging Station Thailand - Piyamate Wisanuvej.kmz
ปตท บจ.ทีเอสวี ออยล์,PTT TSV Oil,PTT,EV Station PluZ,"CCS2, Type 2",47/15  ม.6 ต.น้ำน้อย อ.หาดใหญ่ สงขลา 90110,สงขลา,7.120663,100.5448,#icon-ci-1-labelson,C:\Users\Lenovo\Downloads\DC EV Charging Station Thailand - Piyamate Wisanuvej.kmz
ปตท หจก.บี.เอส.พี.มาร์เก็ตติ้ง,PTT B.S.P Marketing,PTT,EV Station PluZ,"CCS2, Type 2",115/1  ถ.ปัทมานนท์ ต.ในเมือง อ.เมืองร้อยเอ็ด ร้อยเอ็ด 45000,ร้อยเอ็ด,16.04342,103.6467,#icon-ci-1-labelson,C:\Users\Lenovo\Downloads\DC EV Charging Station Thailand - Piyamate Wisanuvej.kmz
ปตท หจก.พนาพนธ์เชียงใหม่,PTT Panapon Chiang Mai,PTT,EV Station PluZ,"CCS2, Type 2",274/1   ม.15 ต.ยุหว่า อ.สันป่าตอง เชียงใหม่ 50120,เชียงใหม่,18.59748,98.88838,#icon-ci-1-labelson,C:\Users\Lenovo\Downloads\DC EV Charging Station Thailand - Piyamate Wisanuvej.kmz
ปตท เจริญราษฎร์,PTT Charoen Rat,PTT,EV Station PluZ,CCS2,92/1  ถ.เจริญราษฎร์ แขวงบางโคล่ เขตบางคอแหลม กรุงเทพมหานคร 10120,กรุงเทพมหานคร,13.69747,100.5137,#icon-ci-1-labelson,C:\Users\Lenovo\Downloads\DC EV Charging Station Thailand - Piyamate Wisanuvej.kmz
ปตท บจ.สโตน ออยล์,PTT Stone Oil,PTT,EV Station PluZ,"CCS2, Type 2",451 ม.1 ต.ควนขนุน อ.เขาชัยสน พัทลุง 93130,พัทลุง,7.4735,100.0742,#icon-ci-1-labelson,C:\Users\Lenovo\Downloads\DC EV Charging Station Thailand - Piyamate Wisanuvej.kmz
ปตท บจ.เซฟพลัส ออโต้,PTT Safe Plus Auto,PTT,EV Station PluZ,"CCS2, Type 2",98 ถ.ตากใบ ต.บางนาค อ.เมืองนราธิวาส นราธิวาส 96000,นราธิวาส,6.420832,101.8354,#icon-ci-1-labelson,C:\Users\Lenovo\Downloads\DC EV Charging Station Thailand - Piyamate Wisanuvej.kmz
ปตท เมืองสุพรรณบุรี,PTT Mueang Suphan Buri,PTT,EV Station PluZ,CCS2,148/1  ถ.มาลัยแมน ต.รั้วใหญ่ อ.เมืองสุพรรณบุรี สุพรรณบุรี 72000,สุพรรณบุรี,14.4756,100.1036,#icon-ci-1-labelson,C:\Users\Lenovo\Downloads\DC EV Charging Station Thailand - Piyamate Wisanuvej.kmz
ท็อปส์ พลาซ่า พะเยา,Tops Plaza Phayao,PTT,EV Station PluZ,"CCS2, Type 2",500 ม.12 ต.ท่าวังทอง อ.เมืองพะเยา พะเยา 56000,พะเยา,19.18594,99.89379,#icon-ci-1-labelson,C:\Users\Lenovo\Downloads\DC EV Charging Station Thailand - Piyamate Wisanuvej.kmz
ปตท บจ.ดับเบิ้ล นายน์,PTT Double Nine Station,PTT,EV Station PluZ,"CCS2, Type 2",444 ม.1 ต.ท่าสาย อ.เมืองเชียงราย เชียงราย 57000,เชียงราย,19.87967,99.85059,#icon-ci-1-labelson,C:\Users\Lenovo\Downloads\DC EV Charging Station Thailand - Piyamate Wisanuvej.kmz
ปตท บจ.สุราษฎร์ พี.เอ็น.ออยล์,PTT Surat P.N. Oil,PTT,EV Station PluZ,"CCS2, Type 2",139 ม.2 ต.เขานิพันธ์ อ.เวียงสระ สุราษฎร์ธานี 84190,สุราษฎร์ธานี,8.585652,99.35186,#icon-ci-1-labelson,C:\Users\Lenovo\Downloads\DC EV Charging Station Thailand - Piyamate Wisanuvej.kmz
ภูทับดาวปาร์ค,Phutubdao Park,PTT,EV Station PluZ,"CCS2, Type 2",66 ม.10 ต.ป่าซาง อ.ดอกคำใต้ พะเยา 56120,พะเยา,19.28664,100.0417,#icon-ci-1-labelson,C:\Users\Lenovo\Downloads\DC EV Charging Station Thailand - Piyamate Wisanuvej.kmz
ปตท บจ.ส.รุ่งวิภา,PTT S. Rungwipha,PTT,EV Station PluZ,"CCS2, Type 2",201/19  ถ.วิภาวดีรังสิต แขวงตลาดบางเขน เขตหลักสี่ กรุงเทพมหานคร 10210,กรุงเทพมหานคร,13.88645,100.5834,#icon-ci-1-labelson,C:\Users\Lenovo\Downloads\DC EV Charging Station Thailand - Piyamate Wisanuvej.kmz
ปตท ท่าโรงช้าง,PTT Tha Rong Chang,PTT,EV Station PluZ,"CCS2, Type 2",90/9  ม.3 ต.ท่าโรงช้าง อ.พุนพิน สุราษฎร์ธานี 84130,สุราษฎร์ธานี,9.043542,99.15364,#icon-ci-1-labelson,C:\Users\Lenovo\Downloads\DC EV Charging Station Thailand - Piyamate Wisanuvej.kmz
ปตท หจก.กรวรินทร์,PTT Kornvarin,PTT,EV Station PluZ,"CCS2, Type 2",117 ม.5 ต.กะปาง อ.ทุ่งสง นครศรีธรรมราช 80310,นครศรีธรรมราช,8.033832,99.64698,#icon-ci-1-labelson,C:\Users\Lenovo\Downloads\DC EV Charging Station Thailand - Piyamate Wisanuvej.kmz
โรงแรมเอ็ม2 วอเตอร์ไซด์,M2 Hotel Waterside,PTT,EV Station PluZ,"CCS2, Type 2",629 ม.17 ต.บ้านต๋อม อ.เมืองพะเยา พะเยา 56000,พะเยา,19.17977,99.88551,#icon-ci-1-labelson,C:\Users\Lenovo\Downloads\DC EV Charging Station Thailand - Piyamate Wisanuvej.kmz
ปตท บจ.ดีเยี่ยม อินโนเวชั่น,PTT Deeyiam Innovation,PTT,EV Station PluZ,CCS2,92/8  ซ.กรุงเทพกรีฑา37 แขวงทับช้าง เขตสะพานสูง กรุงเทพมหานคร 10250,กรุงเทพมหานคร,13.75117,100.6871,#icon-ci-1-labelson,C:\Users\Lenovo\Downloads\DC EV Charging Station Thailand - Piyamate Wisanuvej.kmz
ปตท บจ.หลังสวนปิยะแก๊ส (1),PTT Lang Suan Piya Gas (1),PTT,EV Station PluZ,CCS2,"42-42/1-2,42/7  ม.5 ต.ขันเงิน อ.หลังสวน ชุมพร 86110",ชุมพร,9.913659,99.06081,#icon-ci-1-labelson,C:\Users\Lenovo\Downloads\DC EV Charging Station Thailand - Piyamate Wisanuvej.kmz
ปตท หจก.เอกะหน่อง ปิโตรเลียม,PTT A Ka Nong Petroleum,PTT,EV Station PluZ,"CCS2, Type 2",1141 ม.1 ต.พระบาท อ.เมืองลำปาง ลำปาง 52000,ลำปาง,18.25737,99.5429,#icon-ci-1-labelson,C:\Users\Lenovo\Downloads\DC EV Charging Station Thailand - Piyamate Wisanuvej.kmz
ปตท บจ.ฟูแสงเซอร์วิส 2008,PTT Fusang Service 2008,PTT,EV Station PluZ,CCS2,315 ม.15 ถ.พหลโยธิน ต.บ้านต๋อม อ.เมืองพะเยา พะเยา 56000,พะเยา,19.20316,99.87131,#icon-ci-1-labelson,C:\Users\Lenovo\Downloads\DC EV Charging Station Thailand - Piyamate Wisanuvej.kmz
ปตท หจก.เชียงรายกิตติรัตน์ (เวียงป่าเป้า),PTT Chiang Rai Kittirat (Wiang Pa Pao),PTT,EV Station PluZ,"CCS2, Type 2",153 ม.5 ต.เวียง อ.เวียงป่าเป้า เชียงราย 57170,เชียงราย,19.337277,99.509673,#icon-ci-1-labelson,C:\Users\Lenovo\Downloads\DC EV Charging Station Thailand - Piyamate Wisanuvej.kmz
กรีนพาร์ค คอมมูนิตี้มอลล์,Green Park Community Mall,PTT,EV Station PluZ,"CCS2, Type 2",94/2 ม.4 ต.ฟ้าฮ่าม อ.เมืองเชียงใหม่ เชียงใหม่ 50000,เชียงใหม่,18.80643,99.0217,#icon-ci-1-labelson,C:\Users\Lenovo\Downloads\DC EV Charging Station Thailand - Piyamate Wisanuvej.kmz
ปตท บจ.ดุสิตมอเตอร์ออยล์,PTT Dusit Motor Oil,PTT,EV Station PluZ,"CCS2, Type 2",83 ม.2 ถ.เพชรเกษม ต.เหนือคลอง อ.เหนือคลอง กระบี่ 81130,กระบี่,8.074972,98.995685,#icon-ci-1-labelson,C:\Users\Lenovo\Downloads\DC EV Charging Station Thailand - Piyamate Wisanuvej.kmz
โรบินสัน ไลฟ์สไตล์ แม่สอด,Robinson Lifestyle Maesod,PTT,EV Station PluZ,"CCS2, Type 2",99/115  ถ.สายเอเชีย ต.แม่สอด อ.แม่สอด ตาก 63110,ตาก,16.723392,98.586924,#icon-ci-1-labelson,C:\Users\Lenovo\Downloads\DC EV Charging Station Thailand - Piyamate Wisanuvej.kmz
ปตท หจก.ปิยะพรเจริญกิจ,PTT Piyaporn Charoenkit,PTT,EV Station PluZ,"CCS2, Type 2",129 ม.4 ถ.พหลโยธิน ต.เวียงพางคำ อ.แม่สาย เชียงราย 57130,เชียงราย,20.41828,99.88473,#icon-ci-1-labelson,C:\Users\Lenovo\Downloads\DC EV Charging Station Thailand - Piyamate Wisanuvej.kmz
ท็อปส์ พลาซ่า พิจิตร,Tops Plaza Pichit,PTT,EV Station PluZ,"CCS2, Type 2",332 ม.3 ต.คลองคะเชนทร์ อ.เมืองพิจิตร พิจิตร 66000,พิจิตร,16.4314848431,100.3380831854,#icon-ci-1-labelson,C:\Users\Lenovo\Downloads\DC EV Charging Station Thailand - Piyamate Wisanuvej.kmz
ปตท หจก.ปัญญามอเตอร์ส (7) ริมกก,PTT Panya Motors (7) Rimkok,PTT,EV Station PluZ,"CCS2, Type 2",483 ม.5 ถ.พหลโยธิน ต.ริมกก อ.เมืองเชียงราย เชียงราย 57100,เชียงราย,19.93156,99.84429,#icon-ci-1-labelson,C:\Users\Lenovo\Downloads\DC EV Charging Station Thailand - Piyamate Wisanuvej.kmz
ปตท หจก.พนาพนธ์เชียงใหม่ (หางดง),PTT Panapon Chiang Mai (Hang Dong),PTT,EV Station PluZ,"CCS2, Type 2","29/4,29/6 ม.1 ต.หางดง อ.หางดง เชียงใหม่ 50230",เชียงใหม่,18.69422,98.92603,#icon-ci-1-labelson,C:\Users\Lenovo\Downloads\DC EV Charging Station Thailand - Piyamate Wisanuvej.kmz
ปตท บจ.3เอ็นพีพี,PTT 3 NPP,PTT,EV Station PluZ,CCS2,112/4  ถ.บรมราชชนนี แขวงตลิ่งชัน เขตตลิ่งชัน กรุงเทพมหานคร 10170,กรุงเทพมหานคร,13.7859570379,100.4577773084,#icon-ci-1-labelson,C:\Users\Lenovo\Downloads\DC EV Charging Station Thailand - Piyamate Wisanuvej.kmz
ปตท บจ.เหรียญทองราชพฤกษ์,PTT Rienthong Ratchapruek,PTT,EV Station PluZ,CCS2,59 ถ.ราชพฤกษ์ แขวงตลิ่งชัน เขตตลิ่งชัน กรุงเทพมหานคร 10170,กรุงเทพมหานคร,13.7921560107,100.4475892281,#icon-ci-1-labelson,C:\Users\Lenovo\Downloads\DC EV Charging Station Thailand - Piyamate Wisanuvej.kmz
ปตท พุทธมณฑลสาย 3,PTT Phutthamonthon Sai 3,PTT,EV Station PluZ,"CCS2, Type 2",125/4  ถ.พุทธมณฑลสาย 3 แขวงทวีวัฒนา เขตทวีวัฒนา กรุงเทพมหานคร 10170,กรุงเทพมหานคร,13.7633937781,100.3631632048,#icon-ci-1-labelson,C:\Users\Lenovo\Downloads\DC EV Charging Station Thailand - Piyamate Wisanuvej.kmz
ปตท บจ.ก้องกิ่มเฮง ริชซ์ พร๊อพเพอร์ตี้อินเตอร์แนชชั่นแนล,PTT Kong Kim Heng Rich & Property International,PTT,EV Station PluZ,CCS2,51/11  ม.10 ต.โคกหล่อ อ.เมืองตรัง ตรัง 92000,ตรัง,7.524,99.6198,#icon-ci-1-labelson,C:\Users\Lenovo\Downloads\DC EV Charging Station Thailand - Piyamate Wisanuvej.kmz
ปตท บจ.หลักเมืองถาวรพาณิชย์,PTT Lak Muang Thaworn Panich,PTT,EV Station PluZ,CCS2,254-254/1-7  ม.1 ถ.บางบัวทอง-สุพรรณบุรี  ต.ท่าระหัด อ.เมืองสุพรรณบุรี สุพรรณบุรี 72000,สุพรรณบุรี,14.44236,100.1331,#icon-ci-1-labelson,C:\Users\Lenovo\Downloads\DC EV Charging Station Thailand - Piyamate Wisanuvej.kmz
ปตท หจก.สีหราช ปิโตรเลียม,PTT Siharat Petroleum,PTT,EV Station PluZ,CCS2,34/9  ม.10 ต.วัดจันทร์ อ.เมืองพิษณุโลก พิษณุโลก 65000,พิษณุโลก,16.8148,100.2368,#icon-ci-1-labelson,C:\Users\Lenovo\Downloads\DC EV Charging Station Thailand - Piyamate Wisanuvej.kmz
ปตท บจ.5 แพน,PTT 5 Pan,PTT,EV Station PluZ,"CCS2, Type 2",200 ม.5 ต.ป่าเซ่า อ.เมืองอุตรดิตถ์ อุตรดิตถ์ 53000,อุตรดิตถ์,17.59661,100.1273,#icon-ci-1-labelson,C:\Users\Lenovo\Downloads\DC EV Charging Station Thailand - Piyamate Wisanuvej.kmz
ปตท หจก.นพพรออยล์,PTT Nopporn Oil,PTT,EV Station PluZ,"CCS2, Type 2",555 ม.1 ต.วังทอง อ.วังทอง พิษณุโลก 65130,พิษณุโลก,16.828339,100.414572,#icon-ci-1-labelson,C:\Users\Lenovo\Downloads\DC EV Charging Station Thailand - Piyamate Wisanuvej.kmz
ปตท บจ.แม่สอดปิโตรเลียม (สนญ.),PTT Mae Sot Petroleum (HO),PTT,EV Station PluZ,"CCS2, Type 2",88 ถ.สายเอเซีย ต.แม่สอด อ.แม่สอด ตาก 63110,ตาก,16.7251767681,98.5957171868,#icon-ci-1-labelson,C:\Users\Lenovo\Downloads\DC EV Charging Station Thailand - Piyamate Wisanuvej.kmz
ปตท หจก.โค้งวิไลไทยเสรี,PTT Khong Wilai Thai Seri,PTT,EV Station PluZ,"CCS2, Type 2",9 ม.13 ต.คลองขลุง อ.คลองขลุง กำแพงเพชร 62120,กำแพงเพชร,16.14905,99.72151,#icon-ci-1-labelson,C:\Users\Lenovo\Downloads\DC EV Charging Station Thailand - Piyamate Wisanuvej.kmz
ปตท เมืองกำแพงเพชร,PTT Mueang Kamphaeng Phet,PTT,EV Station PluZ,"CCS2, Type 2",857 ถ.ราชดำเนิน 1 ต.ในเมือง อ.เมืองกำแพงเพชร กำแพงเพชร 62000,กำแพงเพชร,16.45029,99.53697,#icon-ci-1-labelson,C:\Users\Lenovo\Downloads\DC EV Charging Station Thailand - Piyamate Wisanuvej.kmz
ปตท หจก.ปัญญามอเตอร์ส (3),PTT Panya Motors (3),PTT,EV Station PluZ,"CCS2, Type 2",92 ม.1 ถ.บรมอาสน์ ต.ท่าเสา อ.เมืองอุตรดิตถ์ อุตรดิตถ์ 53000,อุตรดิตถ์,17.60428,100.067,#icon-ci-1-labelson,C:\Users\Lenovo\Downloads\DC EV Charging Station Thailand - Piyamate Wisanuvej.kmz
ปตท แพร่,PTT Phrae,PTT,EV Station PluZ,"CCS2, Type 2",275 ม.10 ถ.อุตรดิตถ์ ต.แม่จั๊วะ อ.เด่นชัย แพร่ 54110,แพร่,17.95653,100.0685,#icon-ci-1-labelson,C:\Users\Lenovo\Downloads\DC EV Charging Station Thailand - Piyamate Wisanuvej.kmz
ปตท บจ.สุโขทัยนคร 2018,PTT Sukhothai Nakorn 2018,PTT,EV Station PluZ,CCS2,92/12  ม.4 ต.ธานี อ.เมืองสุโขทัย สุโขทัย 64000,สุโขทัย,17.02088,99.82453,#icon-ci-1-labelson,C:\Users\Lenovo\Downloads\DC EV Charging Station Thailand - Piyamate Wisanuvej.kmz
ปตท บจ.สามดาว ปิโตรเลียม,PTT Sam Dao Petroleum,PTT,EV Station PluZ,CCS2,130 ม.2 ต.ทรัพย์อนันต์ อ.ท่าแซะ ชุมพร 86140,ชุมพร,10.69558,99.20505,#icon-ci-1-labelson,C:\Users\Lenovo\Downloads\DC EV Charging Station Thailand - Piyamate Wisanuvej.kmz
ปตท หจก.ช่างพินิจปิโตรเลียม (2),PTT Chang Phinit Petroleum (2),PTT,EV Station PluZ,"CCS2, Type 2",7/4 ม.1 ต.บ้านกร่าง อ.เมืองพิษณุโลก พิษณุโลก 65000,พิษณุโลก,16.870267,100.209748,#icon-ci-1-labelson,C:\Users\Lenovo\Downloads\DC EV Charging Station Thailand - Piyamate Wisanuvej.kmz
ปตท เอกชัย-บางบอน (ขาออก),PTT Ekkachai-Bangbon (OB),PTT,EV Station PluZ,CCS2,933/1  ถ.เอกชัย แขวงคลองบางบอน เขตบางบอน กรุงเทพมหานคร 10150,กรุงเทพมหานคร,13.66758,100.4143,#icon-ci-1-labelson,C:\Users\Lenovo\Downloads\DC EV Charging Station Thailand - Piyamate Wisanuvej.kmz
ปตท หจก.ช่างพินิจปิโตรเลี่ยม,PTT Chang Phinij Petroleum,PTT,EV Station PluZ,"CCS2, Type 2",57 ม.10 ถ.พิษณุโลก-นครสวรรค์ ต.บางระกำ อ.บางระกำ พิษณุโลก 65140,พิษณุโลก,16.7272,100.1792,#icon-ci-1-labelson,C:\Users\Lenovo\Downloads\DC EV Charging Station Thailand - Piyamate Wisanuvej.kmz
ปตท บจ.เอ็นทีเค ปิโตรเลียม,PTT NTK Petroleum,PTT,EV Station PluZ,"CCS2, Type 2",405 ม.4 ต.มหาโพธิ อ.เก้าเลี้ยว นครสวรรค์ 60230,นครสวรรค์,15.8307,100.1184,#icon-ci-1-labelson,C:\Users\Lenovo\Downloads\DC EV Charging Station Thailand - Piyamate Wisanuvej.kmz
ปตท บจ.อุตสาหกรรมแควใหญ่,PTT Khwae Yai Industry,PTT,EV Station PluZ,"CCS2, Type 2",78/12  ถ.พหลโยธิน ต.กลางแดด อ.เมืองนครสวรรค์ นครสวรรค์ 60000,นครสวรรค์,15.6317,100.1289,#icon-ci-1-labelson,C:\Users\Lenovo\Downloads\DC EV Charging Station Thailand - Piyamate Wisanuvej.kmz
ปตท บจ.เจียมโชติวัฒน์,PTT Jiamchotiwat,PTT,EV Station PluZ,"CCS2, Type 2",555 ม.5 ต.ธรรมศาลา อ.เมืองนครปฐม นครปฐม 73000,นครปฐม,13.811563,100.104736,#icon-ci-1-labelson,C:\Users\Lenovo\Downloads\DC EV Charging Station Thailand - Piyamate Wisanuvej.kmz
ปตท หจก.วีรชัยหล่มสักเซอร์วิส,PTT Werachai Lomsak Service,PTT,EV Station PluZ,"CCS2, Type 2",239/102  ม.1 ต.ชอนไพร อ.เมืองเพชรบูรณ์ เพชรบูรณ์ 67000,เพชรบูรณ์,16.38705,101.1269,#icon-ci-1-labelson,C:\Users\Lenovo\Downloads\DC EV Charging Station Thailand - Piyamate Wisanuvej.kmz
ปตท บจ.แก้วมณีกาญจน์ ปิโตรเลียม,PTT Kaew Maneekan Petroleum,PTT,EV Station PluZ,CCS2,303 ม.11 ต.ปากแพรก อ.เมืองกาญจนบุรี กาญจนบุรี 71000,กาญจนบุรี,14.048004,99.522545,#icon-ci-1-labelson,C:\Users\Lenovo\Downloads\DC EV Charging Station Thailand - Piyamate Wisanuvej.kmz
ปตท หจก.ไสวปิโตรเลียม,PTT Sawai Petroleum,PTT,EV Station PluZ,"CCS2, Type 2",30/1  ม.5 ถ.ตราด-แหลมงอบ ต.หนองเสม็ด อ.เมืองตราด ตราด 23000,ตราด,12.22623,102.5048,#icon-ci-1-labelson,C:\Users\Lenovo\Downloads\DC EV Charging Station Thailand - Piyamate Wisanuvej.kmz
ปตท บจ.ไอ เอส เค.บิซิแนส,PTT ISK Business,PTT,EV Station PluZ,CCS2,55 ม.13 ต.ปากแพรก อ.เมืองกาญจนบุรี กาญจนบุรี 71000,กาญจนบุรี,14.03443,99.56801,#icon-ci-1-labelson,C:\Users\Lenovo\Downloads\DC EV Charging Station Thailand - Piyamate Wisanuvej.kmz
ปตท บจ.สหพัฒนาปิโตรเลียม,PTT Sahapattana Petroleum,PTT,EV Station PluZ,"CCS2, Type 2",71 ม.16 ต.น้ำชุน อ.หล่มสัก เพชรบูรณ์ 67110,เพชรบูรณ์,16.75736,101.1975,#icon-ci-1-labelson,C:\Users\Lenovo\Downloads\DC EV Charging Station Thailand - Piyamate Wisanuvej.kmz
ปตท บจ.ประเสริฐชัย ปิโตร,PTT Prasertchai Petro,PTT,EV Station PluZ,CCS2,35/22  ม.1 ต.บางแก้ว อ.นครชัยศรี นครปฐม 73120,นครปฐม,13.80144,100.1658,#icon-ci-1-labelson,C:\Users\Lenovo\Downloads\DC EV Charging Station Thailand - Piyamate Wisanuvej.kmz
ปตท หจก.ส.กมลวัฒนา,PTT S.Kamol Wattana,PTT,EV Station PluZ,"CCS2, Type 2",162 ม.11 ถ.นาเกลือ ต.บานา อ.เมืองปัตตานี ปัตตานี 94000,ปัตตานี,6.87835,101.2606,#icon-ci-1-labelson,C:\Users\Lenovo\Downloads\DC EV Charging Station Thailand - Piyamate Wisanuvej.kmz
ปตท บจ.เอสทีซี ปิโตรเลียม,PTT STC Petroleum,PTT,EV Station PluZ,CCS2,36/17 ม.4 ถ.หนองจิก  ต.รูสะมิแล อ.เมืองปัตตานี ปัตตานี 94000,ปัตตานี,6.858048,101.2266,#icon-ci-1-labelson,C:\Users\Lenovo\Downloads\DC EV Charging Station Thailand - Piyamate Wisanuvej.kmz
ปตท แอลพีจี ออโต้  หจก.340 บริการ,LPG Auto Station 340 service,PTT,EV Station PluZ,"CCS2, Type 2",338 ม.1 ต.นางบวช อ.เดิมบางนางบวช สุพรรณบุรี 72120,สุพรรณบุรี,14.8012,100.1104,#icon-ci-1-labelson,C:\Users\Lenovo\Downloads\DC EV Charging Station Thailand - Piyamate Wisanuvej.kmz
ปตท แอลพีจี ออโต้  บจ.ทรัพย์นิรันดร์ ปิโตรเลียม,LPG Auto Station Subnirun Petroleum,PTT,EV Station PluZ,"CCS2, Type 2",459 ม.2 ต.หนองดินแดง อ.เมืองนครปฐม นครปฐม 73000,นครปฐม,13.79901,99.98366,#icon-ci-1-labelson,C:\Users\Lenovo\Downloads\DC EV Charging Station Thailand - Piyamate Wisanuvej.kmz
ปตท สหกรณ์การเกษตรพนมวังก์ จำกัด,PTT Phanom Wang Agricultural Cooperative Limited,PTT,EV Station PluZ,"CCS2, Type 2",382 ม.1 ต.แพรกหา อ.ควนขนุน พัทลุง 93110,พัทลุง,7.6632,100.0251,#icon-ci-1-labelson,C:\Users\Lenovo\Downloads\DC EV Charging Station Thailand - Piyamate Wisanuvej.kmz
ปตท บจ.เอส.ที.พี. ทะเลบก ปิโตรเลียม,PTT S.T.P. Talaybok Petroleum,PTT,EV Station PluZ,CCS2,222 ม.6 ต.ห้วยม่วง อ.กำแพงแสน นครปฐม 73180,นครปฐม,14.123,99.9867,#icon-ci-1-labelson,C:\Users\Lenovo\Downloads\DC EV Charging Station Thailand - Piyamate Wisanuvej.kmz
ปตท พระราม 2 48,PTT Rama 2 48,PTT,EV Station PluZ,"CCS2, Type 2",118/5  ถ.พระรามที่ 2 แขวงแสมดำ เขตบางขุนเทียน กรุงเทพมหานคร 10150,กรุงเทพมหานคร,13.6667,100.4456,#icon-ci-1-labelson,C:\Users\Lenovo\Downloads\DC EV Charging Station Thailand - Piyamate Wisanuvej.kmz
ปตท บจ.ปิโตรพลัส คอร์ปอเรชัน (มาบโป่ง),PTT Petroplus Corporation (Map Pong),PTT,EV Station PluZ,"CCS2, Type 2",78 ม.8 ต.มาบโป่ง อ.พานทอง ชลบุรี 20160,ชลบุรี,13.42912,101.1095,#icon-ci-1-labelson,C:\Users\Lenovo\Downloads\DC EV Charging Station Thailand - Piyamate Wisanuvej.kmz
ปตท บจ.ปิโตรพลัส คอร์ปอเรชัน (บ้านเก่า),PTT Petroplus Corporation (Ban Kao),PTT,EV Station PluZ,"CCS2, Type 2",222/99  ม.2 ต.บ้านเก่า อ.พานทอง ชลบุรี 20160,ชลบุรี,13.45776,101.0421,#icon-ci-1-labelson,C:\Users\Lenovo\Downloads\DC EV Charging Station Thailand - Piyamate Wisanuvej.kmz
ปตท บจ.สินมาไพบูลย์ ปิโตรเลียม,PTT Sinmaphaiboon Petroleum,PTT,EV Station PluZ,"CCS2, Type 2",228 ถ.พุทธมณฑล สาย 3 แขวงหนองค้างพลู เขตหนองแขม กรุงเทพมหานคร 10160,กรุงเทพมหานคร,13.7198,100.3641,#icon-ci-1-labelson,C:\Users\Lenovo\Downloads\DC EV Charging Station Thailand - Piyamate Wisanuvej.kmz
ปตท บจ.นันท์ธนารักษ์รุ่งเรืองปิโตรเลียม,PTT Nantanarukrungreaug Petroleum,PTT,EV Station PluZ,CCS2,111/1  ม.3 ถ.สุพรรณบุรี-ชัยนาท ต.ศรีประจันต์ อ.ศรีประจันต์ สุพรรณบุรี 72140,สุพรรณบุรี,14.62845,100.1504,#icon-ci-1-labelson,C:\Users\Lenovo\Downloads\DC EV Charging Station Thailand - Piyamate Wisanuvej.kmz
ปตท หจก.ประชิดแลนด์,PTT Prachid Land,PTT,EV Station PluZ,"CCS2, Type 2",91/8  ม.1 ต.ท่าทองหลาง อ.บางคล้า ฉะเชิงเทรา 24110,ฉะเชิงเทรา,13.71069,101.2097,#icon-ci-1-labelson,C:\Users\Lenovo\Downloads\DC EV Charging Station Thailand - Piyamate Wisanuvej.kmz
ปตท หจก.รุ่งพิทักษ์บริการ,PTT Rung Phithak Service,PTT,EV Station PluZ,"CCS2, Type 2",234/5  ม.4 ถ.ฉะเชิงเทรา-กบินทร์บุรี ต.ท่าถ่าน อ.พนมสารคาม ฉะเชิงเทรา 24120,ฉะเชิงเทรา,13.75370849,101.369545,#icon-ci-1-labelson,C:\Users\Lenovo\Downloads\DC EV Charging Station Thailand - Piyamate Wisanuvej.kmz
โรบินสัน ไลฟ์สไตล์ ชัยภูมิ,Robinson Lifestyle Chaiyaphum,PTT,EV Station PluZ,"CCS2, Type 2",299 ถ.ชัยภูมิ-สีคิ้ว ต.ในเมือง อ.เมืองชัยภูมิ ชัยภูมิ 36000,ชัยภูมิ,15.78719,102.0309,#icon-ci-1-labelson,C:\Users\Lenovo\Downloads\DC EV Charging Station Thailand - Piyamate Wisanuvej.kmz
โรบินสัน ไลฟ์สไตล์ ตรัง,Robinson Lifestyle Trang,PTT,EV Station PluZ,"CCS2, Type 2",138 ถ.พัทลุง ต.ทับเที่ยง อ.เมืองตรัง ตรัง 92000,ตรัง,7.564047,99.62632,#icon-ci-1-labelson,C:\Users\Lenovo\Downloads\DC EV Charging Station Thailand - Piyamate Wisanuvej.kmz
โรบินสัน ไลฟ์สไตล์ บุรีรัมย์,Robinson Lifestyle Buriram,PTT,EV Station PluZ,"CCS2, Type 2",125 ม.6 ถ.บุรีรัมย์-นางรอง ต.กระสัง อ.เมืองบุรีรัมย์ บุรีรัมย์ 31000,บุรีรัมย์,14.97335,103.0642,#icon-ci-1-labelson,C:\Users\Lenovo\Downloads\DC EV Charging Station Thailand - Piyamate Wisanuvej.kmz
ปตท บจ.ต้นน่านทรานเทค (3),PTT Tonnan Trantech (3),PTT,EV Station PluZ,CCS2,110 ม.4 ถ.พหลโยธิน ต.ประดาง อ.วังเจ้า ตาก 63180,ตาก,16.76521,99.1911023,#icon-ci-1-labelson,C:\Users\Lenovo\Downloads\DC EV Charging Station Thailand - Piyamate Wisanuvej.kmz
ปตท บจ.เอส.ที. ร่มเกล้า ปิโตรเลียม,PTT S.T. Romklao Petroleum,PTT,EV Station PluZ,CCS2,179 ถ.ร่มเกล้า แขวงแสนแสบ เขตมีนบุรี กรุงเทพมหานคร 10510,กรุงเทพมหานคร,13.78581,100.7467,#icon-ci-1-labelson,C:\Users\Lenovo\Downloads\DC EV Charging Station Thailand - Piyamate Wisanuvej.kmz
ปตท บจ.อัศวราชบุรี กรุ๊ป,PTT Asawa Ratchaburi Group,PTT,EV Station PluZ,CCS2,4 ถ.ท้าวอู่ทอง ต.หน้าเมือง อ.เมืองราชบุรี ราชบุรี 70000,ราชบุรี,13.52724,99.82285,#icon-ci-1-labelson,C:\Users\Lenovo\Downloads\DC EV Charging Station Thailand - Piyamate Wisanuvej.kmz
ปตท บจ.เค ซี พลังงาน,PTT KC Energy,PTT,EV Station PluZ,CCS2,28/1  ม.7 ต.หนองข้างคอก อ.เมืองชลบุรี ชลบุรี 20000,ชลบุรี,13.28671,100.9887,#icon-ci-1-labelson,C:\Users\Lenovo\Downloads\DC EV Charging Station Thailand - Piyamate Wisanuvej.kmz
ปตท สุขาภิบาล 3,PTT Sukhaphiban 3,PTT,EV Station PluZ,CCS2,97 ม.3 แขวงสะพานสูง เขตสะพานสูง กรุงเทพมหานคร 10240,กรุงเทพมหานคร,13.77791,100.6742,#icon-ci-1-labelson,C:\Users\Lenovo\Downloads\DC EV Charging Station Thailand - Piyamate Wisanuvej.kmz
ปตท บจ.อ่างหินพลังงาน,PTT Ang Hin Energy,PTT,EV Station PluZ,CCS2,1/186  ม.5 ต.เสม็ด อ.เมืองชลบุรี ชลบุรี 20000,ชลบุรี,13.32753,100.9392,#icon-ci-1-labelson,C:\Users\Lenovo\Downloads\DC EV Charging Station Thailand - Piyamate Wisanuvej.kmz
ปตท บางแสน,PTT Bang Saen,PTT,EV Station PluZ,"CCS2, Type 2",197/33  ถ.ลงหาดบางแสน ต.แสนสุข อ.เมืองชลบุรี ชลบุรี 20130,ชลบุรี,13.28475,100.91927,#icon-ci-1-labelson,C:\Users\Lenovo\Downloads\DC EV Charging Station Thailand - Piyamate Wisanuvej.kmz
ปตท ลาซาล,PTT Lasalle,PTT,EV Station PluZ,CCS2,627 ถ.ลาซาล แขวงบางนาใต้ เขตบางนา กรุงเทพมหานคร 10260,กรุงเทพมหานคร,13.66225,100.6203,#icon-ci-1-labelson,C:\Users\Lenovo\Downloads\DC EV Charging Station Thailand - Piyamate Wisanuvej.kmz
ปตท หจก.เอเซียพิจิตรออยล์,PTT Asia Phichit Oil,PTT,EV Station PluZ,"CCS2, Type 2",142/4  ม.10 ต.หนองกระโดน อ.เมืองนครสวรรค์ นครสวรรค์ 60240,นครสวรรค์,15.8157,99.94254,#icon-ci-1-labelson,C:\Users\Lenovo\Downloads\DC EV Charging Station Thailand - Piyamate Wisanuvej.kmz
ปตท หจก.ไชโยปิโตรเลียม,PTT Chaiyo Petroleum,PTT,EV Station PluZ,"CCS2, Type 2",219 ม.1 ถ.สายเอเซีย ต.จรเข้ร้อง อ.ไชโย อ่างทอง 14140,อ่างทอง,14.66362,100.4717,#icon-ci-1-labelson,C:\Users\Lenovo\Downloads\DC EV Charging Station Thailand - Piyamate Wisanuvej.kmz
ปตท กล้วยน้ำไท,PTT Kluaynamthai,PTT,EV Station PluZ,"CCS2, Type 2",4638 ถ.พระราม 4 แขวงพระโขนง เขตคลองเตย กรุงเทพมหานคร 10110,กรุงเทพมหานคร,13.71244,100.5894,#icon-ci-1-labelson,C:\Users\Lenovo\Downloads\DC EV Charging Station Thailand - Piyamate Wisanuvej.kmz
ปตท บจ.ปิโตรเลียม 2016,PTT Petroleum 2016,PTT,EV Station PluZ,"CCS2, Type 2",27/21  ม.5 ต.เหมือง อ.เมืองชลบุรี ชลบุรี 20130,ชลบุรี,13.28609,100.9828,#icon-ci-1-labelson,C:\Users\Lenovo\Downloads\DC EV Charging Station Thailand - Piyamate Wisanuvej.kmz
ปตท บจ.ธีรวรรณชาเล่ต์,PTT Teerawan Chalet,PTT,EV Station PluZ,CCS2,8/9 ถ.ปัญญาอินทรา แขวงคันนายาว เขตคันนายาว กรุงเทพมหานคร 10230,กรุงเทพมหานคร,13.83303,100.6782,#icon-ci-1-labelson,C:\Users\Lenovo\Downloads\DC EV Charging Station Thailand - Piyamate Wisanuvej.kmz
ปตท บจ.ที.เค.ที คอมเมอร์เชียล,PTT T.K.T Commercial,PTT,EV Station PluZ,"CCS2, Type 2",673/1  ถ.รามอินทรา แขวงคันนายาว เขตคันนายาว กรุงเทพมหานคร 10230,กรุงเทพมหานคร,13.81846,100.6842,#icon-ci-1-labelson,C:\Users\Lenovo\Downloads\DC EV Charging Station Thailand - Piyamate Wisanuvej.kmz
ปตท หจก.พัทยาศิริวัฒนา,PTT Pattaya Siriwattana,PTT,EV Station PluZ,CCS2,70 ม.7 ถ.ศรีราชา-ระยอง ต.โป่ง อ.บางละมุง ชลบุรี 20150,ชลบุรี,12.95117,100.9895,#icon-ci-1-labelson,C:\Users\Lenovo\Downloads\DC EV Charging Station Thailand - Piyamate Wisanuvej.kmz
ปตท บจ.วรปัญญาปิโตรเลียม,PTT Vorapanya Petroleum,PTT,EV Station PluZ,CCS2,98 ม.1 ถ.สระบุรี-หล่มสัก ต.ชัยนารายณ์ อ.ชัยบาดาล ลพบุรี 15130,ลพบุรี,15.20374,101.0937,#icon-ci-1-labelson,C:\Users\Lenovo\Downloads\DC EV Charging Station Thailand - Piyamate Wisanuvej.kmz
ปตท เทพประสิทธิ์,PTT Thep Prasit,PTT,EV Station PluZ,"CCS2, Type 2",361/6  ม.12 ต.หนองปรือ อ.บางละมุง ชลบุรี 20150,ชลบุรี,12.90904,100.8886,#icon-ci-1-labelson,C:\Users\Lenovo\Downloads\DC EV Charging Station Thailand - Piyamate Wisanuvej.kmz
ปตท หจก.ส.ศรีทองปิโตรเลียม,PTT S.Srithong Petroleum,PTT,EV Station PluZ,"CCS2, Type 2",83 ม.6 ต.โพตลาดแก้ว อ.ท่าวุ้ง ลพบุรี 15150,ลพบุรี,14.81027,100.5686,#icon-ci-1-labelson,C:\Users\Lenovo\Downloads\DC EV Charging Station Thailand - Piyamate Wisanuvej.kmz
ปตท หจก.เอเซียบริการ(2528),PTT Asia Service (2528),PTT,EV Station PluZ,CCS2,114 ม.6 ถ.สายเอเซีย ต.ท่าฉนวน อ.มโนรมย์ ชัยนาท 17110,ชัยนาท,15.37354,100.1534,#icon-ci-1-labelson,C:\Users\Lenovo\Downloads\DC EV Charging Station Thailand - Piyamate Wisanuvej.kmz
ปตท บจ.พลังไทยเพื่อไทย,PTT THAI ENERGY FOR THAI,PTT,EV Station PluZ,CCS2,58/8-58/17 ถ.เสรีไทย แขวงคันนายาว เขตคันนายาว กรุงเทพมหานคร 10230,กรุงเทพมหานคร,13.7880537784,100.677887903,#icon-ci-1-labelson,C:\Users\Lenovo\Downloads\DC EV Charging Station Thailand - Piyamate Wisanuvej.kmz
โออาร์ สเปซ รามคำแหง 129,OR Space Ramkhamhang 129,PTT,EV Station PluZ,CCS2,189/1 ถ.รามคำแหง แขวงสะพานสูง เขตสะพานสูง กรุงเทพมหานคร 10240,กรุงเทพมหานคร,13.777144,100.672834,#icon-ci-1-labelson,C:\Users\Lenovo\Downloads\DC EV Charging Station Thailand - Piyamate Wisanuvej.kmz
ปตท หจก.พึ่งสุขปิโตรเลียม,PTT Phuengsuk Petroleum,PTT,EV Station PluZ,CCS2,72/2  ม.6 ถ.รังสิต-ปทุมธานี ต.บางพูน อ.เมืองปทุมธานี ปทุมธานี 12000,ปทุมธานี,13.98972,100.5824,#icon-ci-1-labelson,C:\Users\Lenovo\Downloads\DC EV Charging Station Thailand - Piyamate Wisanuvej.kmz
ปตท หจก.ชลบุรีสันติสุข,PTT Chonburi Santisuk,PTT,EV Station PluZ,CCS2,9/4 ม.3 ถ.เลี่ยงเมือง ต.หนองไม้แดง อ.เมืองชลบุรี ชลบุรี 20000,ชลบุรี,13.39471,101.0085,#icon-ci-1-labelson,C:\Users\Lenovo\Downloads\DC EV Charging Station Thailand - Piyamate Wisanuvej.kmz
ปตท บจ.เอ.ที.ปิโตรเลียม,PTT A.T. Petroleum,PTT,EV Station PluZ,CCS2,555 ม.1 ต.หนองเสือช้าง อ.หนองใหญ่ ชลบุรี 20190,ชลบุรี,13.16286,101.2842,#icon-ci-1-labelson,C:\Users\Lenovo\Downloads\DC EV Charging Station Thailand - Piyamate Wisanuvej.kmz
ปตท หจก.พรพิมล ชัยนาท,PTT Phornpimol Chainat,PTT,EV Station PluZ,CCS2,199 ม.1 ต.ธรรมามูล อ.เมืองชัยนาท ชัยนาท 17000,ชัยนาท,15.23656,100.105,#icon-ci-1-labelson,C:\Users\Lenovo\Downloads\DC EV Charging Station Thailand - Piyamate Wisanuvej.kmz
ปตท โก โฮลเซล รามคำแหง,Go Wholesale Ramkhamhaeng,PTT,EV Station PluZ,CCS2,1289/1  ถ.รามคำแหง  แขวงหัวหมาก เขตบางกะปิ กรุงเทพมหานคร 10240,กรุงเทพมหานคร,13.771563,100.662983,#icon-ci-1-labelson,C:\Users\Lenovo\Downloads\DC EV Charging Station Thailand - Piyamate Wisanuvej.kmz
อมารี สนามบินดอนเมือง กรุงเทพ,Amari Don Muang Airport Bangkok,PTT,EV Station PluZ,"CCS2, Type 2",333 ม.10 ถ.เชิดวุฒากาศ  แขวงสีกัน เขตดอนเมือง กรุงเทพมหานคร 10210,กรุงเทพมหานคร,13.92081,100.601,#icon-ci-1-labelson,C:\Users\Lenovo\Downloads\DC EV Charging Station Thailand - Piyamate Wisanuvej.kmz
ปตท บจ.เมเจอร์ออยล์ แหลมฉบัง,PTT Major Oil Laem Chabang,PTT,EV Station PluZ,CCS2,114 ม.6 ต.บางละมุง อ.บางละมุง ชลบุรี 20150,ชลบุรี,13.06724,100.9329,#icon-ci-1-labelson,C:\Users\Lenovo\Downloads\DC EV Charging Station Thailand - Piyamate Wisanuvej.kmz
ปตท หจก.หนองฉางแก๊ส,PTT Nong Chang Gas,PTT,EV Station PluZ,CCS2,173 ถ.รักการดี ต.อุทัยใหม่ อ.เมืองอุทัยธานี อุทัยธานี 61000,อุทัยธานี,15.36823,100.0153,#icon-ci-1-labelson,C:\Users\Lenovo\Downloads\DC EV Charging Station Thailand - Piyamate Wisanuvej.kmz
ปตท หจก.รุ่งพิทักษ์ปิโตรเลียม,PTT Rung Phithak Petroleum,PTT,EV Station PluZ,"CCS2, Type 2",123 ม.4 ถ.ฉะเชิงเทรา-กบินทร์บุรี ต.เมืองเก่า อ.พนมสารคาม ฉะเชิงเทรา 24120,ฉะเชิงเทรา,13.73819,101.3393,#icon-ci-1-labelson,C:\Users\Lenovo\Downloads\DC EV Charging Station Thailand - Piyamate Wisanuvej.kmz
สเตจ ฟายด์ เดอะ เรียล ยู,Stage Find The Real U,PTT,EV Station PluZ,"CCS2, Type 2",95 ซ.โยธินพัฒนา 11 แยก 7 แขวงคลองจั่น เขตบางกะปิ กรุงเทพมหานคร 10240,กรุงเทพมหานคร,13.80584,100.6247,#icon-ci-1-labelson,C:\Users\Lenovo\Downloads\DC EV Charging Station Thailand - Piyamate Wisanuvej.kmz
ปตท แอลพีจี ออโต้  บจ.เทพนภาปิโตรเลียม,LPG Auto Station Thepnapa Petroleum,PTT,EV Station PluZ,"CCS2, Type 2",92/8 ม.2 ถ.พระราม 2 ต.นาโคก อ.เมืองสมุทรสาคร สมุทรสาคร 74000,สมุทรสาคร,13.46646,100.1061,#icon-ci-1-labelson,C:\Users\Lenovo\Downloads\DC EV Charging Station Thailand - Piyamate Wisanuvej.kmz
สน.แอลพีจี บจก.พี โอ ออยล์ (หนองงูเหลือม),LPG Auto Station P O Oil (Nong Ngu Luam),PTT,EV Station PluZ,"CCS2, Type 2",103 ม.15 ต.หนองงูเหลือม อ.เฉลิมพระเกียรติ นครราชสีมา 30000,นครราชสีมา,15.07816,102.2218,#icon-ci-1-labelson,C:\Users\Lenovo\Downloads\DC EV Charging Station Thailand - Piyamate Wisanuvej.kmz
โรบินสัน ไลฟ์สไตล์ สระบุรี,Robinson Lifestyle Saraburi,PTT,EV Station PluZ,"CCS2, Type 2",99 ม.7 ถ.มิตรภาพ ต.ตลิ่งชัน อ.เมืองสระบุรี สระบุรี 18000,สระบุรี,14.5403905272,100.9525437532,#icon-ci-1-labelson,C:\Users\Lenovo\Downloads\DC EV Charging Station Thailand - Piyamate Wisanuvej.kmz
โรบินสัน ไลฟ์สไตล์ ราชพฤกษ์,Robinson Lifestyle Ratchaphruek,PTT,EV Station PluZ,"CCS2, Type 2",19/11  ม.4 ต.คลองข่อย อ.ปากเกร็ด นนทบุรี 11120,นนทบุรี,13.936569959,100.4565175089,#icon-ci-1-labelson,C:\Users\Lenovo\Downloads\DC EV Charging Station Thailand - Piyamate Wisanuvej.kmz
ปตท แอลพีจี ออโต้  หจก.เหลืองภิรมย์แก๊ส,LPG Auto Station Lueangpirom Gas,PTT,EV Station PluZ,"CCS2, Type 2",224 ม.6 ต.ลาดบัวขาว อ.สีคิ้ว นครราชสีมา 30340,นครราชสีมา,14.85111,101.6507,#icon-ci-1-labelson,C:\Users\Lenovo\Downloads\DC EV Charging Station Thailand - Piyamate Wisanuvej.kmz
โรบินสัน ไลฟ์สไตล์ ร้อยเอ็ด,Robinson Lifestyle Roi Et,PTT,EV Station PluZ,"CCS2, Type 2",137 ม.3 ต.ดงลาน อ.เมืองร้อยเอ็ด ร้อยเอ็ด 45000,ร้อยเอ็ด,16.06018,103.6175,#icon-ci-1-labelson,C:\Users\Lenovo\Downloads\DC EV Charging Station Thailand - Piyamate Wisanuvej.kmz
โรบินสัน ไลฟ์สไตล์ ลพบุรี,Robinson Lifestyle Lopburi,PTT,EV Station PluZ,"CCS2, Type 2",555/5 ม.4 ต.กกโก อ.เมืองลพบุรี ลพบุรี 15000,ลพบุรี,14.7754,100.6928,#icon-ci-1-labelson,C:\Users\Lenovo\Downloads\DC EV Charging Station Thailand - Piyamate Wisanuvej.kmz
เบนซ์ บีเคเค กรุ๊ป,Benz BKK Group,PTT,EV Station PluZ,"CCS2, Type 2",999 ถ.เทพรัตน แขวงบางนาเหนือ เขตบางนา กรุงเทพมหานคร 10260,กรุงเทพมหานคร,13.66606,100.6474,#icon-ci-1-labelson,C:\Users\Lenovo\Downloads\DC EV Charging Station Thailand - Piyamate Wisanuvej.kmz
โรบินสัน ไลฟ์สไตล์ สุรินทร์,Robinson Lifestyle Surin,PTT,EV Station PluZ,"CCS2, Type 2",338 ม.16 ต.สลักได อ.เมืองสุรินทร์ สุรินทร์ 32000,สุรินทร์,14.87607,103.532,#icon-ci-1-labelson,C:\Users\Lenovo\Downloads\DC EV Charging Station Thailand - Piyamate Wisanuvej.kmz
ท็อปส์ พลาซ่า สิงห์บุรี,Tops Plaza Singburi,PTT,EV Station PluZ,"CCS2, Type 2",150 ม.1 ต.บางมัญ อ.เมืองสิงห์บุรี สิงห์บุรี 16000,สิงห์บุรี,14.9053502746,100.409250165,#icon-ci-1-labelson,C:\Users\Lenovo\Downloads\DC EV Charging Station Thailand - Piyamate Wisanuvej.kmz
โรบินสัน ไลฟ์สไตล์ ปราจีนบุรี,Robinson Lifestyle Prachinburi,PTT,EV Station PluZ,"CCS2, Type 2",72 ม.3 ต.บางบริบูรณ์ อ.เมืองปราจีนบุรี ปราจีนบุรี 25000,ปราจีนบุรี,14.05908,101.396,#icon-ci-1-labelson,C:\Users\Lenovo\Downloads\DC EV Charging Station Thailand - Piyamate Wisanuvej.kmz
เบนซ์ ไพรม์มัส ออโต้เฮาส์,Benz Primus Autohaus,PTT,EV Station PluZ,"CCS2, Type 2",395 ถ.ประดิษฐ์มนูธรรม แขวงวังทองหลาง เขตวังทองหลาง กรุงเทพมหานคร 10310,กรุงเทพมหานคร,13.77312,100.6057,#icon-ci-1-labelson,C:\Users\Lenovo\Downloads\DC EV Charging Station Thailand - Piyamate Wisanuvej.kmz
ปตท หจก.ชัย พรหมบุรี ปิโตรเลียม,PTT Chai Phromburi Petroleum,PTT,EV Station PluZ,"CCS2, Type 2",130 ม.4 ถ.เอเชีย ต.บ้านหม้อ อ.พรหมบุรี สิงห์บุรี 16120,สิงห์บุรี,14.73196,100.4555,#icon-ci-1-labelson,C:\Users\Lenovo\Downloads\DC EV Charging Station Thailand - Piyamate Wisanuvej.kmz
ปตท บจ.พ.เพชรธนวรรณ,PTT P. Petchthanawan,PTT,EV Station PluZ,CCS2,3/14 ม.3 ต.บ้านใหม่ อ.ปากเกร็ด นนทบุรี 11120,นนทบุรี,13.938589,100.549099,#icon-ci-1-labelson,C:\Users\Lenovo\Downloads\DC EV Charging Station Thailand - Piyamate Wisanuvej.kmz
ปตท บจ.พันธ์เจริญกรุ๊ป,PTT Puncharoen Group,PTT,EV Station PluZ,CCS2,12/3 ม.3 ต.ลำตาเสา อ.วังน้อย พระนครศรีอยุธยา 13170,พระนครศรีอยุธยา,14.23578,100.7241,#icon-ci-1-labelson,C:\Users\Lenovo\Downloads\DC EV Charging Station Thailand - Piyamate Wisanuvej.kmz
ปตท บจ.แสงอารี  (6),PTT Sang Aree Station (6),PTT,EV Station PluZ,"CCS2, Type 2",56 ถ.คู้บอน แขวงบางชัน เขตคลองสามวา กรุงเทพมหานคร 10510,กรุงเทพมหานคร,13.85679,100.6815,#icon-ci-1-labelson,C:\Users\Lenovo\Downloads\DC EV Charging Station Thailand - Piyamate Wisanuvej.kmz
ปตท บจ.สหธราทรัพย์ ปิโตรเลียม,PTT Sahatarasup Petroleum,PTT,EV Station PluZ,CCS2,37/4 ม.10 ต.พรหมณี อ.เมืองนครนายก นครนายก 26000,นครนายก,14.22014,101.1883,#icon-ci-1-labelson,C:\Users\Lenovo\Downloads\DC EV Charging Station Thailand - Piyamate Wisanuvej.kmz
ปตท บจ.23 ปิโตรเลียม(2005),PTT 23 Petroleum (2005),PTT,EV Station PluZ,CCS2,81 ม.7 ต.บ้านกรด อ.บางปะอิน พระนครศรีอยุธยา 13160,พระนครศรีอยุธยา,14.30419,100.6143,#icon-ci-1-labelson,C:\Users\Lenovo\Downloads\DC EV Charging Station Thailand - Piyamate Wisanuvej.kmz
ภูเก็ต แมริออท รีสอร์ทแอนด์สปา เมอร์ลินบีช,"Phuket Marriott Resort & Spa, Merlin Beach",PTT,EV Station PluZ,CCS2,99 ถ.หมื่นเงิน  ต.ป่าตอง อ.กะทู้ ภูเก็ต 83150,ภูเก็ต,7.882443,98.2718,#icon-ci-1-labelson,C:\Users\Lenovo\Downloads\DC EV Charging Station Thailand - Piyamate Wisanuvej.kmz
ปตท หจก.จรรโลงพานิช,PTT Charonlongpanich,PTT,EV Station PluZ,"CCS2, Type 2",1077/1  ถ.แสงชูโต ต.ท่าม่วง อ.ท่าม่วง กาญจนบุรี 71110,กาญจนบุรี,13.97972,99.62369,#icon-ci-1-labelson,C:\Users\Lenovo\Downloads\DC EV Charging Station Thailand - Piyamate Wisanuvej.kmz
ริเวอร์ เคิร์ฟ เขาใหญ่ เรสเทอรองท์ แอนด์ คาเฟ่,River Curve Khaoyai Restaurant & Cafe,PTT,EV Station PluZ,"CCS2, Type 2",944/9  ถ.มิตรภาพ ต.ปากช่อง อ.ปากช่อง นครราชสีมา 30130,นครราชสีมา,14.7167514394,101.4307453153,#icon-ci-1-labelson,C:\Users\Lenovo\Downloads\DC EV Charging Station Thailand - Piyamate Wisanuvej.kmz
เดอะ เซ้นส์ ปิ่นเกล้า,The Sense Pinklao,PTT,EV Station PluZ,"CCS2, Type 2",71/50  ถ.บรมราชชนนี แขวงอรุณอมรินทร์ เขตบางกอกน้อย กรุงเทพมหานคร 10700,กรุงเทพมหานคร,13.77983,100.475,#icon-ci-1-labelson,C:\Users\Lenovo\Downloads\DC EV Charging Station Thailand - Piyamate Wisanuvej.kmz
ปตท แอลพีจี ออโต้  หจก.สกลปิโตรเลียม สเตชัน,LPG Auto Station Sakon Petroleum Station,PTT,EV Station PluZ,"CCS2, Type 2",342/1-3  ถ.สกลนคร-กาฬสินธุ์ ต.ธาตุเชิงชุม อ.เมืองสกลนคร สกลนคร 47000,สกลนคร,17.14504,104.1222,#icon-ci-1-labelson,C:\Users\Lenovo\Downloads\DC EV Charging Station Thailand - Piyamate Wisanuvej.kmz
ปตท แอลพีจี ออโต้  หจก.ปัญญรัตน์,LPG Auto Station Panyarat,PTT,EV Station PluZ,"CCS2, Type 2",27/2 ม.1 ต.ท่าตอ อ.มหาราช พระนครศรีอยุธยา 13150,พระนครศรีอยุธยา,14.57441,100.4893,#icon-ci-1-labelson,C:\Users\Lenovo\Downloads\DC EV Charging Station Thailand - Piyamate Wisanuvej.kmz
ปตท หจก.ตรงตวงปิโตรเลียม,PTT Trong Tuang Petroleum,PTT,EV Station PluZ,CCS2,2/1 ม.2 ถ.เพชรเกษม ต.แสงอรุณ อ.ทับสะแก ประจวบคีรีขันธ์ 77130,ประจวบคีรีขันธ์,11.57838,99.64787,#icon-ci-1-labelson,C:\Users\Lenovo\Downloads\DC EV Charging Station Thailand - Piyamate Wisanuvej.kmz
โรบินสัน ไลฟ์สไตล์ มุกดาหาร,Robinson Lifestyle Mukdahan,PTT,EV Station PluZ,"CCS2, Type 2",99/11  ถ.ชยางกูร ต.มุกดาหาร อ.เมืองมุกดาหาร มุกดาหาร 49000,มุกดาหาร,16.56934,104.7185,#icon-ci-1-labelson,C:\Users\Lenovo\Downloads\DC EV Charging Station Thailand - Piyamate Wisanuvej.kmz
ปตท บจ.บดีศร ออยล์ เซอร์วิส,PTT Bodisorn Oil Service,PTT,EV Station PluZ,CCS2,"11/10,11/11,11/12  ถ.เจ้าคุณทหาร  แขวงลำปลาทิว เขตลาดกระบัง กรุงเทพมหานคร 10520",กรุงเทพมหานคร,13.750937,100.787356,#icon-ci-1-labelson,C:\Users\Lenovo\Downloads\DC EV Charging Station Thailand - Piyamate Wisanuvej.kmz
โรงแรม ลาบาริส,Hotel Labaris,PTT,EV Station PluZ,"CCS2, Type 2",9/9 ม.4 ต.หมูสี อ.ปากช่อง นครราชสีมา 30130,นครราชสีมา,14.54136,101.4055,#icon-ci-1-labelson,C:\Users\Lenovo\Downloads\DC EV Charging Station Thailand - Piyamate Wisanuvej.kmz
ปตท บางละมุง,PTT Bang Lamung,PTT,EV Station PluZ,CCS2,193/7 ม.2 ต.นาเกลือ อ.บางละมุง ชลบุรี 20150,ชลบุรี,12.98299,100.9193,#icon-ci-1-labelson,C:\Users\Lenovo\Downloads\DC EV Charging Station Thailand - Piyamate Wisanuvej.kmz
ปตท หจก.โกมลประนอมบริการ,PTT Komolpranorm Service,PTT,EV Station PluZ,"CCS2, Type 2",56 ม.10 ถ.สุขุมวิท ต.ตะพง อ.เมืองระยอง ระยอง 21000,ระยอง,12.64434,101.3525,#icon-ci-1-labelson,C:\Users\Lenovo\Downloads\DC EV Charging Station Thailand - Piyamate Wisanuvej.kmz
ปตท บจ.สมาพันธ์พัฒนา,PTT Samaphanpattana,PTT,EV Station PluZ,CCS2,65/3 ม.3 ถ.สุขุมวิท ต.เชิงเนิน อ.เมืองระยอง ระยอง 21000,ระยอง,12.69723,101.2668,#icon-ci-1-labelson,C:\Users\Lenovo\Downloads\DC EV Charging Station Thailand - Piyamate Wisanuvej.kmz
ปตท บจ.นิตยา แกรนด์ ปิโตรเลียม,PTT Nittaya Grand Petroleum,PTT,EV Station PluZ,CCS2,4/16 ม.3 ต.มาบยางพร อ.ปลวกแดง ระยอง 21140,ระยอง,13.00083,101.1308,#icon-ci-1-labelson,C:\Users\Lenovo\Downloads\DC EV Charging Station Thailand - Piyamate Wisanuvej.kmz
ปตท บจ.อินออยล์ 2559,PTT In Oil 2016,PTT,EV Station PluZ,CCS2,388 ม.5 ต.ปลวกแดง อ.ปลวกแดง ระยอง 21140,ระยอง,12.99996,101.2032,#icon-ci-1-labelson,C:\Users\Lenovo\Downloads\DC EV Charging Station Thailand - Piyamate Wisanuvej.kmz
เดอะ วัน ลาดปลาดุก,THE ONE LADPRADUK,PTT,EV Station PluZ,"CCS2, Type 2",97/3 ม.8 ต.บางรักพัฒนา อ.บางบัวทอง นนทบุรี 11110,นนทบุรี,13.9097,100.3867,#icon-ci-1-labelson,C:\Users\Lenovo\Downloads\DC EV Charging Station Thailand - Piyamate Wisanuvej.kmz
ปตท หจก.จันเสนออยล์,PTT Chansen Oil,PTT,EV Station PluZ,CCS2,97 ม.4 ต.สร้อยทอง อ.ตาคลี นครสวรรค์ 60210,นครสวรรค์,15.1041523577,100.388864776,#icon-ci-1-labelson,C:\Users\Lenovo\Downloads\DC EV Charging Station Thailand - Piyamate Wisanuvej.kmz
ปตท เหมราชมาบปู,PTT Hemaraj Mappu,PTT,EV Station PluZ,CCS2,898/15 ม.8 ต.เขาคันทรง อ.ศรีราชา ชลบุรี 20110,ชลบุรี,13.08545,101.1684,#icon-ci-1-labelson,C:\Users\Lenovo\Downloads\DC EV Charging Station Thailand - Piyamate Wisanuvej.kmz
ปตท บจ.ปิโตรพลัส คอร์ปอเรชัน (หนองรี),PTT Petroplus Corporation (Nong Ri),PTT,EV Station PluZ,"CCS2, Type 2",98 ม.8 ต.หนองรี อ.เมืองชลบุรี ชลบุรี 20000,ชลบุรี,13.34158,101.0495,#icon-ci-1-labelson,C:\Users\Lenovo\Downloads\DC EV Charging Station Thailand - Piyamate Wisanuvej.kmz
ปตท บจ.หยกพาณิชย์,PTT Yokpanit,PTT,EV Station PluZ,CCS2,115/2 ม.4 ถ.สุขุมวิท ต.ตะพง อ.เมืองระยอง ระยอง 21000,ระยอง,12.6545919177,101.3340412092,#icon-ci-1-labelson,C:\Users\Lenovo\Downloads\DC EV Charging Station Thailand - Piyamate Wisanuvej.kmz
ปตท หจก.ระยองวีระพันธ์บริการ,PTT Rayong Veeraphan Service,PTT,EV Station PluZ,CCS2,383 ถ.สุขุมวิท ต.ห้วยโป่ง อ.เมืองระยอง ระยอง 21150,ระยอง,12.7376442879,101.126090384,#icon-ci-1-labelson,C:\Users\Lenovo\Downloads\DC EV Charging Station Thailand - Piyamate Wisanuvej.kmz
ปตท บจ.ไทม์เว็นเจอร์ส (5),PTT Timeventure (5),PTT,EV Station PluZ,CCS2,88 ม.5 ต.บึง อ.ศรีราชา ชลบุรี 20230,ชลบุรี,13.09368,100.9742,#icon-ci-1-labelson,C:\Users\Lenovo\Downloads\DC EV Charging Station Thailand - Piyamate Wisanuvej.kmz
ปตท หจก.ศิริวิไลบริการ,PTT Siriwilai Service,PTT,EV Station PluZ,CCS2,219 ม.6 ถ.สุขุมวิท ต.นาเกลือ อ.บางละมุง ชลบุรี 20150,ชลบุรี,12.943751,100.903565,#icon-ci-1-labelson,C:\Users\Lenovo\Downloads\DC EV Charging Station Thailand - Piyamate Wisanuvej.kmz
ปตท บางทราย,PTT Bang Sai,PTT,EV Station PluZ,"CCS2, Type 2",144 ม.5 ถ.สุขุมวิท ต.บางทราย อ.เมืองชลบุรี ชลบุรี 20000,ชลบุรี,13.38783,100.9877,#icon-ci-1-labelson,C:\Users\Lenovo\Downloads\DC EV Charging Station Thailand - Piyamate Wisanuvej.kmz
ปตท เมืองระยอง,PTT Mueang Rayong,PTT,EV Station PluZ,"CCS2, Type 2",851/1 ถ.สุขุมวิท ต.เชิงเนิน อ.เมืองระยอง ระยอง 21000,ระยอง,12.67522,101.2887,#icon-ci-1-labelson,C:\Users\Lenovo\Downloads\DC EV Charging Station Thailand - Piyamate Wisanuvej.kmz
ดาดฟ้า ลาซาล,Dadfa lasalle,PTT,EV Station PluZ,CCS2,539 ถ.ลาซาล  แขวงบางนาใต้ เขตบางนา กรุงเทพมหานคร 10260,กรุงเทพมหานคร,13.66334,100.6181,#icon-ci-1-labelson,C:\Users\Lenovo\Downloads\DC EV Charging Station Thailand - Piyamate Wisanuvej.kmz
ปตท นิคมอีสเทิร์นซีบอร์ด,PTT Eastern Seaboard,PTT,EV Station PluZ,"CCS2, Type 2",789/24 ม.3 ต.บ่อวิน อ.ศรีราชา ชลบุรี 20230,ชลบุรี,13.03779,101.120157,#icon-ci-1-labelson,C:\Users\Lenovo\Downloads\DC EV Charging Station Thailand - Piyamate Wisanuvej.kmz
ปตท บจ.คุณเท่ง(ชะอำ) ปิโตรเลียม,PTT Khun Teng (Cha-am) Petroleum,PTT,EV Station PluZ,"CCS2, Type 2",720/1 ถ.เพชรเกษม ต.ชะอำ อ.ชะอำ เพชรบุรี 76120,เพชรบุรี,12.81475,99.94129,#icon-ci-1-labelson,C:\Users\Lenovo\Downloads\DC EV Charging Station Thailand - Piyamate Wisanuvej.kmz
ปตท บจ.ทีไอเอ็ม พัฒนาพลังงาน,PTT TIM Energy Development,PTT,EV Station PluZ,"CCS2, Type 2",554/39 ม.7 ต.เขาคันทรง อ.ศรีราชา ชลบุรี 20110,ชลบุรี,13.076811,101.176561,#icon-ci-1-labelson,C:\Users\Lenovo\Downloads\DC EV Charging Station Thailand - Piyamate Wisanuvej.kmz
ปตท บจ.รัตนณิชาออยล์,PTT Rattananicha Oil,PTT,EV Station PluZ,CCS2,1/8 ม.4 ถ.สาย 331 ต.ท่าบุญมี อ.เกาะจันทร์ ชลบุรี 20240,ชลบุรี,13.39334,101.281,#icon-ci-1-labelson,C:\Users\Lenovo\Downloads\DC EV Charging Station Thailand - Piyamate Wisanuvej.kmz
ปตท บจ.สิทธิชัยพัฒนาปิโตรเลียม,PTT Sittichai Phattana Petroleum,PTT,EV Station PluZ,"CCS2, Type 2",99 ม.5 ต.โคกสะอาด อ.ศรีเทพ เพชรบูรณ์ 67170,เพชรบูรณ์,15.48197,101.0592,#icon-ci-1-labelson,C:\Users\Lenovo\Downloads\DC EV Charging Station Thailand - Piyamate Wisanuvej.kmz
ปตท หจก.กนกภรณ์พังงา,PTT Kanokporn Phangnga,PTT,EV Station PluZ,"CCS2, Type 2",44/17 ม.1 ถ.เพชรเกษม ต.ลำแก่น อ.ท้ายเหมือง พังงา 82120,พังงา,8.59134,98.25702,#icon-ci-1-labelson,C:\Users\Lenovo\Downloads\DC EV Charging Station Thailand - Piyamate Wisanuvej.kmz
ปตท หจก.พีอาร์ ปิโตรเลียม,PTT PR Petroleum,PTT,EV Station PluZ,"CCS2, Type 2",403 ถ.มิตรภาพ-หนองคาย  ต.ในเมือง อ.เมืองนครราชสีมา นครราชสีมา 30000,นครราชสีมา,14.98978,102.0963,#icon-ci-1-labelson,C:\Users\Lenovo\Downloads\DC EV Charging Station Thailand - Piyamate Wisanuvej.kmz
ปตท บจ.เอ็นริช,PTT En Rich Station,PTT,EV Station PluZ,CCS2,888 ถ.ทางหลวงแผ่นดินสาย 36 ต.มาบข่า อ.นิคมพัฒนา ระยอง 21180,ระยอง,12.75612,101.1904,#icon-ci-1-labelson,C:\Users\Lenovo\Downloads\DC EV Charging Station Thailand - Piyamate Wisanuvej.kmz
ปตท บจ.ชัยเสรีปิโตรเลียม,PTT Chai Seri Petroleum,PTT,EV Station PluZ,CCS2,212 ม.7 ถ.สาย331 ต.หนองเหียง อ.พนัสนิคม ชลบุรี 20140,ชลบุรี,13.48311,101.2791,#icon-ci-1-labelson,C:\Users\Lenovo\Downloads\DC EV Charging Station Thailand - Piyamate Wisanuvej.kmz
ปตท บจ.ออโต้วัน ปิโตรเลียม,PTT Auto One Petroleum,PTT,EV Station PluZ,"CCS2, Type 2",9999 ถ.สุขุมวิท ต.เนินพระ อ.เมืองระยอง ระยอง 21150,ระยอง,12.701826,101.188711,#icon-ci-1-labelson,C:\Users\Lenovo\Downloads\DC EV Charging Station Thailand - Piyamate Wisanuvej.kmz
ปตท ไพรบึง-เดชอุดม,PTT Phrai Bueng-Det Udom,PTT,EV Station PluZ,CCS2,206 ม.5 ต.สำโรงพลัน อ.ไพรบึง ศรีสะเกษ 33180,ศรีสะเกษ,14.68761,104.37906,#icon-ci-1-labelson,C:\Users\Lenovo\Downloads\DC EV Charging Station Thailand - Piyamate Wisanuvej.kmz
ปตท บจ.ระยองส่งเสริมกิจ,PTT Rayong Songsermkit,PTT,EV Station PluZ,CCS2,244 ม.1 ต.นิคมพัฒนา อ.นิคมพัฒนา ระยอง 21180,ระยอง,12.83358,101.206,#icon-ci-1-labelson,C:\Users\Lenovo\Downloads\DC EV Charging Station Thailand - Piyamate Wisanuvej.kmz
ปตท เทพา,PTT Thepha,PTT,EV Station PluZ,CCS2,205 ม.2 ต.เทพา อ.เทพา สงขลา 90150,สงขลา,6.871079,100.959,#icon-ci-1-labelson,C:\Users\Lenovo\Downloads\DC EV Charging Station Thailand - Piyamate Wisanuvej.kmz
ปตท บจ.โกมลประนอม ปิโตรเลียม,PTT Komolpranorm Petroleum,PTT,EV Station PluZ,"CCS2, Type 2",99/2 ม.4 ต.ชากโดน อ.แกลง ระยอง 21110,ระยอง,12.7299,101.5853,#icon-ci-1-labelson,C:\Users\Lenovo\Downloads\DC EV Charging Station Thailand - Piyamate Wisanuvej.kmz
เบอร์เกอร์ คิง รัชดา ไดร์ฟทรู,Burger King Ratchada Drive Thru,PTT,EV Station PluZ,"CCS2, Type 2",42 ถ.รัชดาภิเษก แขวงจันทรเกษม เขตจตุจักร กรุงเทพมหานคร 10900,กรุงเทพมหานคร,13.81967,100.5756,#icon-ci-1-labelson,C:\Users\Lenovo\Downloads\DC EV Charging Station Thailand - Piyamate Wisanuvej.kmz
ปตท ศรีราชา,PTT Sri Racha,PTT,EV Station PluZ,"CCS2, Type 2",9 ถ.สุขุมวิท ต.ศรีราชา อ.ศรีราชา ชลบุรี 20110,ชลบุรี,13.18211,100.9322,#icon-ci-1-labelson,C:\Users\Lenovo\Downloads\DC EV Charging Station Thailand - Piyamate Wisanuvej.kmz
ปตท บจ.หลิ่มรุ่งทรัพย์  2,PTT Limroongsup Branch 2,PTT,EV Station PluZ,CCS2,4 ม.13 ถ.พหลโยธิน ต.เมืองพาน อ.พาน เชียงราย 57120,เชียงราย,19.5400419,99.7416105,#icon-ci-1-labelson,C:\Users\Lenovo\Downloads\DC EV Charging Station Thailand - Piyamate Wisanuvej.kmz
ปตท ท่าสองคอน,PTT Tha Song Khon,PTT,EV Station PluZ,"CCS2, Type 2",558/7 ม.1 ต.ท่าสองคอน อ.เมืองมหาสารคาม มหาสารคาม 44000,มหาสารคาม,16.19199,103.2392,#icon-ci-1-labelson,C:\Users\Lenovo\Downloads\DC EV Charging Station Thailand - Piyamate Wisanuvej.kmz
ปตท บจ.อรุณรุ่ง ออยล์,PTT Arunrung Oil,PTT,EV Station PluZ,"CCS2, Type 2",168 ม.3 ต.ปาเสมัส อ.สุไหงโก-ลก นราธิวาส 96120,นราธิวาส,6.049146,101.9994,#icon-ci-1-labelson,C:\Users\Lenovo\Downloads\DC EV Charging Station Thailand - Piyamate Wisanuvej.kmz
ปตท บจ.บูรพาปิโตรเลียม (1995),PTT Burapha Petroleum (1995),PTT,EV Station PluZ,"CCS2, Type 2",54 ถ.สาย 36 ต.มาบข่า อ.นิคมพัฒนา ระยอง 21180,ระยอง,12.76459,101.1799,#icon-ci-1-labelson,C:\Users\Lenovo\Downloads\DC EV Charging Station Thailand - Piyamate Wisanuvej.kmz
อวานี พลัส เขาหลัก รีสอร์ท,Avani+ Khao Lak Resort,PTT,EV Station PluZ,"CCS2, Type 2",99 ม.8 ต.บางม่วง อ.ตะกั่วป่า พังงา 82190,พังงา,8.763666,98.26556,#icon-ci-1-labelson,C:\Users\Lenovo\Downloads\DC EV Charging Station Thailand - Piyamate Wisanuvej.kmz
ปตท สิงหนคร,PTT Singhanakhon,PTT,EV Station PluZ,"CCS2, Type 2",80/4 ม.4 ถ.เขาแดง-ระโนด ต.ม่วงงาม อ.สิงหนคร สงขลา 90330,สงขลา,7.34681,100.4792,#icon-ci-1-labelson,C:\Users\Lenovo\Downloads\DC EV Charging Station Thailand - Piyamate Wisanuvej.kmz
ปตท หจก.ละงูปิโตรเลียม,PTT La-ngu Petroleum,PTT,EV Station PluZ,"CCS2, Type 2",227 ม.9 ต.ละงู อ.ละงู สตูล 91110,สตูล,6.88545,99.80917,#icon-ci-1-labelson,C:\Users\Lenovo\Downloads\DC EV Charging Station Thailand - Piyamate Wisanuvej.kmz
ปตท หจก.เอส.เอส.ปิโตรเลี่ยม 2015,PTT S.S. Petroleum  2015,PTT,EV Station PluZ,"CCS2, Type 2",567 ม.7 ต.หนองบัว อ.เมืองอุดรธานี อุดรธานี 41000,อุดรธานี,17.43451,102.7996,#icon-ci-1-labelson,C:\Users\Lenovo\Downloads\DC EV Charging Station Thailand - Piyamate Wisanuvej.kmz
ปตท แอลพีจี ออโต้  บจ.เคเอสเอ็ม ออโต้แก๊ส,LPG Auto Station KSM Auto Gas,PTT,EV Station PluZ,"CCS2, Type 2",254 ถ.บางบอน 5 แขวงบางบอนเหนือ เขตบางบอน กรุงเทพมหานคร 10150,กรุงเทพมหานคร,13.6430197269,100.3673198644,#icon-ci-1-labelson,C:\Users\Lenovo\Downloads\DC EV Charging Station Thailand - Piyamate Wisanuvej.kmz
